"","ID","ADM0_NAME","CTRY_ISO_C","CTY_ISO_A3","CTRY_NAT_N","ADM1_NAME","ADM1_ISO_C","SALB1_C","ADM1_NAT_C","NAME","SALB3_N","SALB3_C","ADM3_NAT_N","ADM3_NAT_C","ADM3_TYPEN","ADM3_TYPEC","REGION","GAUL_CODE","LONGITUDE","LATITUDE","ID2","STATUS"
"1",1,"Argentina",32,"ARG","Argentina","salta","AR-A","ARG017","66","anta","Anta","ARG017001","Anta","007","Departamento",2,"SOC","AR_A_66007",-63.8379947,-24.86667192,1,1
"2",2,"Argentina",32,"ARG","Argentina","salta","AR-A","ARG017","66","cachi","Cachi","ARG017002","Cachi","014","Departamento",2,"SOC","AR_A_66014",-66.19470403,-25.04468919,2,1
"3",3,"Argentina",32,"ARG","Argentina","salta","AR-A","ARG017","66","cafayate","Cafayate","ARG017003","Cafayate","021","Departamento",2,"SOC","AR_A_66021",-65.8772794,-26.13079055,3,1
"4",4,"Argentina",32,"ARG","Argentina","salta","AR-A","ARG017","66","salta","Capital","ARG017004","Salta (Capital)","028","Departamento",2,"SOC","AR_A_66028",-65.27179369,-24.90005378,4,1
"5",5,"Argentina",32,"ARG","Argentina","salta","AR-A","ARG017","66","cerrillos","Cerrillos","ARG017005","Cerrillos","035","Departamento",2,"SOC","AR_A_66035",-65.39796339,-24.99236025,5,1
"6",6,"Argentina",32,"ARG","Argentina","salta","AR-A","ARG017","66","chicoana","Chicoana","ARG017006","Chicoana","042","Departamento",2,"SOC","AR_A_66042",-65.60872333,-25.14556468,6,1
"7",7,"Argentina",32,"ARG","Argentina","salta","AR-A","ARG017","66","generalguemes","General Guemes","ARG017007","General Guemes","049","Departamento",2,"SOC","AR_A_66049",-64.96880146,-24.77196093,7,1
"8",8,"Argentina",32,"ARG","Argentina","salta","AR-A","ARG017","66","generaljosedesanmartin","General Jose de San Martin","ARG017008","General Jos?ÇÜ de San Mart?ín","056","Departamento",2,"SOC","AR_A_66056",-63.65583665,-22.70938284,8,1
"9",9,"Argentina",32,"ARG","Argentina","salta","AR-A","ARG017","66","guachipas","Guachipas","ARG017009","Guachipas","063","Departamento",2,"SOC","AR_A_66063",-65.44039961,-25.71508544,9,1
"10",10,"Argentina",32,"ARG","Argentina","salta","AR-A","ARG017","66","iruya","Iruya","ARG017010","Iruya","070","Departamento",2,"SOC","AR_A_66070",-64.90905281,-22.796872,10,1
"11",11,"Argentina",32,"ARG","Argentina","salta","AR-A","ARG017","66","lacaldera","La Caldera","ARG017011","La Caldera","077","Departamento",2,"SOC","AR_A_66077",-65.43986117,-24.56374811,11,1
"12",12,"Argentina",32,"ARG","Argentina","salta","AR-A","ARG017","66","lacandelaria","La Candelaria","ARG017012","La Candelaria","084","Departamento",2,"SOC","AR_A_66084",-65.16979904,-26.08592854,12,1
"13",13,"Argentina",32,"ARG","Argentina","salta","AR-A","ARG017","66","lapoma","La Poma","ARG017013","La Poma","091","Departamento",2,"SOC","AR_A_66091",-66.21420845,-24.09428486,13,1
"14",14,"Argentina",32,"ARG","Argentina","salta","AR-A","ARG017","66","lavina","La Vina","ARG017014","La Vi?ña","098","Departamento",2,"SOC","AR_A_66098",-65.58146785,-25.43744456,14,1
"15",15,"Argentina",32,"ARG","Argentina","salta","AR-A","ARG017","66","losandes","Los Andes","ARG017015","Los Andes","105","Departamento",2,"SOC","AR_A_66105",-67.33982396,-24.6522769,15,1
"16",16,"Argentina",32,"ARG","Argentina","salta","AR-A","ARG017","66","metan","Metan","ARG017016","Met?ín","112","Departamento",2,"SOC","AR_A_66112",-64.57529779,-25.41905081,16,1
"17",17,"Argentina",32,"ARG","Argentina","salta","AR-A","ARG017","66","molinos","Molinos","ARG017017","Molinos","119","Departamento",2,"SOC","AR_A_66119",-66.44971012,-25.52987211,17,1
"18",18,"Argentina",32,"ARG","Argentina","salta","AR-A","ARG017","66","oran","Oran","ARG017018","Or?ín","126","Departamento",2,"SOC","AR_A_66126",-64.15792908,-23.48926406,18,1
"19",19,"Argentina",32,"ARG","Argentina","salta","AR-A","ARG017","66","rivadavia","Rivadavia","ARG017019","Rivadavia","133","Departamento",2,"SOC","AR_A_66133",-62.83182464,-23.52785855,19,1
"20",20,"Argentina",32,"ARG","Argentina","salta","AR-A","ARG017","66","rosariodelafrontera","Rosario de La Frontera","ARG017020","Rosario de La Frontera","140","Departamento",2,"SOC","AR_A_66140",-64.72900761,-25.8623625,20,1
"21",21,"Argentina",32,"ARG","Argentina","salta","AR-A","ARG017","66","rosariodelerma","Rosario de Lerma","ARG017021","Rosario de Lerma","147","Departamento",2,"SOC","AR_A_66147",-65.85376712,-24.54586234,21,1
"22",22,"Argentina",32,"ARG","Argentina","salta","AR-A","ARG017","66","sancarlos","San Carlos","ARG017022","San Carlos","154","Departamento",2,"SOC","AR_A_66154",-66.17334621,-25.81299032,22,1
"23",23,"Argentina",32,"ARG","Argentina","salta","AR-A","ARG017","66","santavictoria","Santa Victoria","ARG017023","Santa Victoria","161","Departamento",2,"SOC","AR_A_66161",-64.90896252,-22.37722534,23,1
"24",24,"Argentina",32,"ARG","Argentina","buenosaires","AR-B","ARG001","06","adolfoalsina","Adolfo Alsina","ARG001003","Adolfo Alsina","007","Partido",2,"SOC","AR_B_06007",-63.06008534,-37.19818221,24,1
"25",25,"Argentina",32,"ARG","Argentina","buenosaires","AR-B","ARG001","06","adolfogonzaleschaves","Adolfo Gonzales Chaves","ARG001004","Adolfo Gonzales Chaves","014","Partido",2,"SOC","AR_B_06014",-60.25178959,-37.96399588,25,1
"26",26,"Argentina",32,"ARG","Argentina","buenosaires","AR-B","ARG001","06","alberti","Alberti","ARG001005","Alberti","021","Partido",2,"SOC","AR_B_06021",-60.28672027,-35.03735694,26,1
"27",27,"Argentina",32,"ARG","Argentina","buenosaires","AR-B","ARG001","06","almirantebrown","Almirante Brown","ARG001006","Almirante Brown","028","Partido",2,"SOC","AR_B_06028",-58.36825846,-34.83867066,27,1
"28",28,"Argentina",32,"ARG","Argentina","buenosaires","AR-B","ARG001","06","avellaneda","Avellaneda","ARG001008","Avellaneda","035","Partido",2,"SOC","AR_B_06035",-58.34286024,-34.68368807,28,1
"29",29,"Argentina",32,"ARG","Argentina","buenosaires","AR-B","ARG001","06","ayacucho","Ayacucho","ARG001009","Ayacucho","042","Partido",2,"SOC","AR_B_06042",-58.44635297,-37.03748929,29,1
"30",30,"Argentina",32,"ARG","Argentina","buenosaires","AR-B","ARG001","06","azul","Azul","ARG001010","Azul","049","Partido",2,"SOC","AR_B_06049",-59.69950961,-36.78984211,30,1
"31",31,"Argentina",32,"ARG","Argentina","buenosaires","AR-B","ARG001","06","bahiablanca","Bahia Blanca","ARG001011","Bah?ía Blanca","056","Partido",2,"SOC","AR_B_06056",-62.17247863,-38.58199412,31,1
"32",32,"Argentina",32,"ARG","Argentina","buenosaires","AR-B","ARG001","06","balcarce","Balcarce","ARG001012","Balcarce","063","Partido",2,"SOC","AR_B_06063",-58.27365103,-37.71755338,32,1
"33",33,"Argentina",32,"ARG","Argentina","buenosaires","AR-B","ARG001","06","baradero","Baradero","ARG001013","Baradero","070","Partido",2,"SOC","AR_B_06070",-59.49046288,-33.92986479,33,1
"34",34,"Argentina",32,"ARG","Argentina","buenosaires","AR-B","ARG001","06","arrecifes","Arrecifes","ARG001007","Arrecifes","077","Partido",2,"SOC","AR_B_06077",-60.06554476,-34.0121763,34,1
"35",35,"Argentina",32,"ARG","Argentina","buenosaires","AR-B","ARG001","06","benitojuarez","Benito Juarez","ARG001014","Benito Ju?árez","084","Partido",2,"SOC","AR_B_06084",-59.88660236,-37.59025062,35,1
"36",36,"Argentina",32,"ARG","Argentina","buenosaires","AR-B","ARG001","06","berazategui","Berazategui","ARG001015","Berazategui","091","Partido",2,"SOC","AR_B_06091",-58.15546413,-34.82168115,36,1
"37",37,"Argentina",32,"ARG","Argentina","buenosaires","AR-B","ARG001","06","berisso","Berisso","ARG001016","Berisso","098","Partido",2,"SOC","AR_B_06098",-57.82944359,-34.90965295,37,1
"38",38,"Argentina",32,"ARG","Argentina","buenosaires","AR-B","ARG001","06","bolivar","Bolivar","ARG001017","Bol?ívar","105","Partido",2,"SOC","AR_B_06105",-61.14952967,-36.29720375,38,1
"39",39,"Argentina",32,"ARG","Argentina","buenosaires","AR-B","ARG001","06","bragado","Bragado","ARG001018","Bragado","112","Partido",2,"SOC","AR_B_06112",-60.60713824,-35.06114776,39,1
"40",40,"Argentina",32,"ARG","Argentina","buenosaires","AR-B","ARG001","06","brandsen","Brandsen","ARG001019","Brandsen","119","Partido",2,"SOC","AR_B_06119",-58.1807819,-35.22183428,40,1
"41",41,"Argentina",32,"ARG","Argentina","buenosaires","AR-B","ARG001","06","campana","Campana","ARG001020","Campana","126","Partido",2,"SOC","AR_B_06126",-58.88330115,-34.13926775,41,1
"42",42,"Argentina",32,"ARG","Argentina","buenosaires","AR-B","ARG001","06","canuelas","Canuelas","ARG001021","Ca??uelas","134","Partido",2,"SOC","AR_B_06134",-58.69419402,-35.14881557,42,1
"43",43,"Argentina",32,"ARG","Argentina","buenosaires","AR-B","ARG001","06","capitansarmiento","Capitan Sarmiento","ARG001022","Capit?án Sarmiento","140","Partido",2,"SOC","AR_B_06140",-59.8595987,-34.15235819,43,1
"44",44,"Argentina",32,"ARG","Argentina","buenosaires","AR-B","ARG001","06","carloscasares","Carlos Casares","ARG001023","Carlos Casares","147","Partido",2,"SOC","AR_B_06147",-61.37581276,-35.74851987,44,1
"45",45,"Argentina",32,"ARG","Argentina","buenosaires","AR-B","ARG001","06","carlostejedor","Carlos Tejedor","ARG001024","Carlos Tejedor","154","Partido",2,"SOC","AR_B_06154",-62.42634085,-35.383027,45,1
"46",46,"Argentina",32,"ARG","Argentina","buenosaires","AR-B","ARG001","06","carmendeareco","Carmen de Areco","ARG001025","Carmen de Areco","161","Partido",2,"SOC","AR_B_06161",-59.88723601,-34.40918318,46,1
"47",47,"Argentina",32,"ARG","Argentina","buenosaires","AR-B","ARG001","06","castelli","Castelli","ARG001026","Castelli","168","Partido",2,"SOC","AR_B_06168",-57.65409457,-36.04401707,47,1
"48",48,"Argentina",32,"ARG","Argentina","buenosaires","AR-B","ARG001","06","colon","Colon","ARG001030","Col?ón","175","Partido",2,"SOC","AR_B_06175",-61.06445675,-33.88357288,48,1
"49",49,"Argentina",32,"ARG","Argentina","buenosaires","AR-B","ARG001","06","coroneldemarinaleonardorosales","Coronel de Marina Leonardo Rosales","ARG001031","Coronel de Marina Leonardo Rosales","182","Partido",2,"SOC","AR_B_06182",-61.83204206,-38.85005083,49,1
"50",50,"Argentina",32,"ARG","Argentina","buenosaires","AR-B","ARG001","06","coroneldorrego","Coronel Dorrego","ARG001032","Coronel Dorrego","189","Partido",2,"SOC","AR_B_06189",-61.09525422,-38.67025247,50,1
"51",51,"Argentina",32,"ARG","Argentina","buenosaires","AR-B","ARG001","06","coronelpringles","Coronel Pringles","ARG001033","Coronel Pringles","196","Partido",2,"SOC","AR_B_06196",-61.26632814,-38.14850531,51,1
"52",52,"Argentina",32,"ARG","Argentina","buenosaires","AR-B","ARG001","06","coronelsuarez","Coronel Suarez","ARG001034","Coronel Su?árez","203","Partido",2,"SOC","AR_B_06203",-61.88751741,-37.53079868,52,1
"53",53,"Argentina",32,"ARG","Argentina","buenosaires","AR-B","ARG001","06","chacabuco","Chacabuco","ARG001027","Chacabuco","210","Partido",2,"SOC","AR_B_06210",-60.35652934,-34.61843074,53,1
"54",54,"Argentina",32,"ARG","Argentina","buenosaires","AR-B","ARG001","06","chascomus","Chascomus","ARG001028","Chascom?ús","218","Partido",2,"SOC","AR_B_06217",-57.90020955,-35.60652682,54,1
"55",55,"Argentina",32,"ARG","Argentina","buenosaires","AR-B","ARG001","06","chivilcoy","Chivilcoy","ARG001029","Chivilcoy","224","Partido",2,"SOC","AR_B_06224",-59.9634702,-34.91787147,55,1
"56",56,"Argentina",32,"ARG","Argentina","buenosaires","AR-B","ARG001","06","daireaux","Daireaux","ARG001035","Daireaux","231","Partido",2,"SOC","AR_B_06231",-61.89060745,-36.64003918,56,1
"57",57,"Argentina",32,"ARG","Argentina","buenosaires","AR-B","ARG001","06","dolores","Dolores","ARG001036","Dolores","238","Partido",2,"SOC","AR_B_06238",-57.63801448,-36.400747,57,1
"58",58,"Argentina",32,"ARG","Argentina","buenosaires","AR-B","ARG001","06","ensenada","Ensenada","ARG001037","Ensenada","245","Partido",2,"SOC","AR_B_06245",-57.98400864,-34.8437773,58,1
"59",59,"Argentina",32,"ARG","Argentina","buenosaires","AR-B","ARG001","06","escobar","Escobar","ARG001038","Escobar","252","Partido",2,"SOC","AR_B_06252",-58.77449307,-34.33458263,59,1
"60",60,"Argentina",32,"ARG","Argentina","buenosaires","AR-B","ARG001","06","estabanecheverria","Estaban Echeverria","ARG001039","Esteban Echeverr?ía","260","Partido",2,"SOC","AR_B_06260",-58.47768012,-34.83480897,60,1
"61",61,"Argentina",32,"ARG","Argentina","buenosaires","AR-B","ARG001","06","exaltaciondelacruz","Exaltacion de La Cruz","ARG001040","Exaltaci?ón de La Cruz","266","Partido",2,"SOC","AR_B_06266",-59.1612285,-34.29935451,61,1
"62",62,"Argentina",32,"ARG","Argentina","buenosaires","AR-B","ARG001","06","ezeiza","Ezeiza","ARG001041","Ezeiza","270","Partido",2,"SOC","AR_B_06270",-58.56622554,-34.87910347,62,1
"63",63,"Argentina",32,"ARG","Argentina","buenosaires","AR-B","ARG001","06","florenciovarela","Florencio Varela","ARG001042","Florencio Varela","274","Partido",2,"SOC","AR_B_06274",-58.26392487,-34.88195364,63,1
"64",64,"Argentina",32,"ARG","Argentina","buenosaires","AR-B","ARG001","06","florentinoameghino","Florentino Ameghino","ARG001043","Florentino Ameghino","277","Partido",2,"SOC","AR_B_06277",-62.39813221,-34.87651047,64,1
"65",65,"Argentina",32,"ARG","Argentina","buenosaires","AR-B","ARG001","06","generalalvarado","General Alvarado","ARG001044","General Alvarado","280","Partido",2,"SOC","AR_B_06280",-58.07329286,-38.20688411,65,1
"66",66,"Argentina",32,"ARG","Argentina","buenosaires","AR-B","ARG001","06","generalalvear","General Alvear","ARG001045","General Alvear","287","Partido",2,"SOC","AR_B_06287",-60.13734053,-36.03565786,66,1
"67",67,"Argentina",32,"ARG","Argentina","buenosaires","AR-B","ARG001","06","generalarenales","General Arenales","ARG001046","General Arenales","294","Partido",2,"SOC","AR_B_06294",-61.28694652,-34.23587065,67,1
"68",68,"Argentina",32,"ARG","Argentina","buenosaires","AR-B","ARG001","06","generalbelgrano","General Belgrano","ARG001047","General Belgrano","301","Partido",2,"SOC","AR_B_06301",-58.70309184,-35.83795747,68,1
"69",69,"Argentina",32,"ARG","Argentina","buenosaires","AR-B","ARG001","06","generalguido","General Guido","ARG001048","General Guido","308","Partido",2,"SOC","AR_B_06308",-58.00044853,-36.67026388,69,1
"70",70,"Argentina",32,"ARG","Argentina","buenosaires","AR-B","ARG001","06","generaljuanmadariaga","General Juan Madariaga","ARG001049","General Juan Madariaga","315","Partido",2,"SOC","AR_B_06315",-57.23451241,-37.15789856,70,1
"71",71,"Argentina",32,"ARG","Argentina","buenosaires","AR-B","ARG001","06","generallamadrid","General La Madrid","ARG001050","General La Madrid","322","Partido",2,"SOC","AR_B_06322",-61.34268807,-37.35895977,71,1
"72",72,"Argentina",32,"ARG","Argentina","buenosaires","AR-B","ARG001","06","generallasheras","General Las Heras","ARG001051","General Las Heras","329","Partido",2,"SOC","AR_B_06329",-58.9994457,-34.91200044,72,1
"73",73,"Argentina",32,"ARG","Argentina","buenosaires","AR-B","ARG001","06","generallavalle","General Lavalle","ARG001052","General Lavalle","336","Partido",2,"SOC","AR_B_06336",-56.9495587,-36.65229838,73,1
"74",74,"Argentina",32,"ARG","Argentina","buenosaires","AR-B","ARG001","06","generalpaz","General Paz","ARG001053","General Paz","343","Partido",2,"SOC","AR_B_06343",-58.39404204,-35.46811994,74,1
"75",75,"Argentina",32,"ARG","Argentina","buenosaires","AR-B","ARG001","06","generalpinto","General Pinto","ARG001054","General Pinto","351","Partido",2,"SOC","AR_B_06351",-62.03821478,-34.66404911,75,1
"76",76,"Argentina",32,"ARG","Argentina","buenosaires","AR-B","ARG001","06","generalpueyrredon","General Pueyrredon","ARG001055","General Pueyrred?ón","357","Partido",2,"SOC","AR_B_06357",-57.74478544,-37.97035512,76,1
"77",77,"Argentina",32,"ARG","Argentina","buenosaires","AR-B","ARG001","06","generalrodriguez","General Rodriguez","ARG001056","General Rodr?íguez","364","Partido",2,"SOC","AR_B_06364",-58.9918081,-34.65420199,77,1
"78",78,"Argentina",32,"ARG","Argentina","buenosaires","AR-B","ARG001","06","generalsanmartin","General San Martin","ARG001057","General San Mart?ín","371","Partido",2,"SOC","AR_B_06371",-58.56477096,-34.55749208,78,1
"79",79,"Argentina",32,"ARG","Argentina","buenosaires","AR-B","ARG001","06","generalviamonte","General Viamonte","ARG001058","General Viamonte","385","Partido",2,"SOC","AR_B_06385",-61.05248933,-34.99771257,79,1
"80",80,"Argentina",32,"ARG","Argentina","buenosaires","AR-B","ARG001","06","generalvillegas","General Villegas","ARG001059","General Villegas","392","Partido",2,"SOC","AR_B_06392",-62.95721718,-34.77177348,80,1
"81",81,"Argentina",32,"ARG","Argentina","buenosaires","AR-B","ARG001","06","guamini","Guamini","ARG001060","Guamin?í","399","Partido",2,"SOC","AR_B_06399",-62.4198141,-36.89194057,81,1
"82",82,"Argentina",32,"ARG","Argentina","buenosaires","AR-B","ARG001","06","hipolitoyrigoyen","Hipolito Yrigoyen","ARG001061","Hip?ólito Yrigoyen","406","Partido",2,"SOC","AR_B_06406",-61.66203606,-36.25883479,82,1
"83",83,"Argentina",32,"ARG","Argentina","buenosaires","AR-B","ARG001","06","hurlingham","Hurlingham","ARG001062","Hurlingham","408","Partido",2,"SOC","AR_B_06408",-58.64942786,-34.60446964,83,1
"84",84,"Argentina",32,"ARG","Argentina","buenosaires","AR-B","ARG001","06","ituzaingo","Ituzaingo","ARG001063","Ituzaing?ó","410","Partido",2,"SOC","AR_B_06410",-58.68841993,-34.64099334,84,1
"85",85,"Argentina",32,"ARG","Argentina","buenosaires","AR-B","ARG001","06","josecpaz","Jose C. Paz","ARG001064","Jos?ÇÜ C. Paz","412","Partido",2,"SOC","AR_B_06412",-58.78187804,-34.50572165,85,1
"86",86,"Argentina",32,"ARG","Argentina","buenosaires","AR-B","ARG001","06","junin","Junin","ARG001065","Jun?ín","413","Partido",2,"SOC","AR_B_06413",-61.00768835,-34.54510654,86,1
"87",87,"Argentina",32,"ARG","Argentina","buenosaires","AR-B","ARG001","06","lacosta","La Costa","ARG001066","La Costa","420","Partido",2,"SOC","AR_B_06420",-56.7199738,-36.76499427,87,1
"88",88,"Argentina",32,"ARG","Argentina","buenosaires","AR-B","ARG001","06","lamatanza","La Matanza","ARG001067","La Matanza","427","Partido",2,"SOC","AR_B_06427",-58.6257018,-34.77326836,88,1
"89",89,"Argentina",32,"ARG","Argentina","buenosaires","AR-B","ARG001","06","lanus","Lanus","ARG001069","Lan?ús","434","Partido",2,"SOC","AR_B_06434",-58.39520825,-34.71031556,89,1
"90",90,"Argentina",32,"ARG","Argentina","buenosaires","AR-B","ARG001","06","laplata","La Plata","ARG001068","La Plata","441","Partido",2,"SOC","AR_B_06441",-58.01883577,-35.00407808,90,1
"91",91,"Argentina",32,"ARG","Argentina","buenosaires","AR-B","ARG001","06","laprida","Laprida","ARG001070","Laprida","448","Partido",2,"SOC","AR_B_06448",-60.7656497,-37.51623848,91,1
"92",92,"Argentina",32,"ARG","Argentina","buenosaires","AR-B","ARG001","06","lasflores","Las Flores","ARG001071","Las Flores","455","Partido",2,"SOC","AR_B_06455",-59.17971766,-36.02057105,92,1
"93",93,"Argentina",32,"ARG","Argentina","buenosaires","AR-B","ARG001","06","leandronalem","Leandro N. Alem","ARG001072","Leandro N. Alem","462","Partido",2,"SOC","AR_B_06462",-61.61391364,-34.49918352,93,1
"94",94,"Argentina",32,"ARG","Argentina","buenosaires","AR-B","ARG001","06","lezama","","","Lezama","466","Partido",2,"SOC","AR_B_06466",-57.89762754,-35.8517698,94,1
"95",95,"Argentina",32,"ARG","Argentina","buenosaires","AR-B","ARG001","06","lincoln","Lincoln","ARG001073","Lincoln","469","Partido",2,"SOC","AR_B_06469",-61.68384302,-35.07162884,95,1
"96",96,"Argentina",32,"ARG","Argentina","buenosaires","AR-B","ARG001","06","loberia","Loberia","ARG001074","Lober?ía","476","Partido",2,"SOC","AR_B_06476",-58.69341362,-38.09289656,96,1
"97",97,"Argentina",32,"ARG","Argentina","buenosaires","AR-B","ARG001","06","lobos","Lobos","ARG001075","Lobos","483","Partido",2,"SOC","AR_B_06483",-59.1523356,-35.22227804,97,1
"98",98,"Argentina",32,"ARG","Argentina","buenosaires","AR-B","ARG001","06","lomasdezamora","Lomas de Zamora","ARG001076","Lomas de Zamora","490","Partido",2,"SOC","AR_B_06490",-58.42471035,-34.75870097,98,1
"99",99,"Argentina",32,"ARG","Argentina","buenosaires","AR-B","ARG001","06","lujan","Lujan","ARG001077","Luj?án","497","Partido",2,"SOC","AR_B_06497",-59.16320092,-34.57269775,99,1
"100",100,"Argentina",32,"ARG","Argentina","buenosaires","AR-B","ARG001","06","magdalena","Magdalena","ARG001078","Magdalena","505","Partido",2,"SOC","AR_B_06505",-57.70018215,-35.15180609,100,1
"101",101,"Argentina",32,"ARG","Argentina","buenosaires","AR-B","ARG001","06","maipu","Maipu","ARG001079","Maip?ú","511","Partido",2,"SOC","AR_B_06511",-57.5897227,-36.88954409,101,1
"102",102,"Argentina",32,"ARG","Argentina","buenosaires","AR-B","ARG001","06","malvinasargentinas","Malvinas Argentinas","ARG001080","Malvinas Argentinas","515","Partido",2,"SOC","AR_B_06515",-58.70921981,-34.4939791,102,1
"103",103,"Argentina",32,"ARG","Argentina","buenosaires","AR-B","ARG001","06","marchiquita","Mar Chiquita","ARG001081","Mar Chiquita","518","Partido",2,"SOC","AR_B_06518",-57.64394293,-37.50625754,103,1
"104",104,"Argentina",32,"ARG","Argentina","buenosaires","AR-B","ARG001","06","marcospaz","Marcos Paz","ARG001082","Marcos Paz","525","Partido",2,"SOC","AR_B_06525",-58.84946469,-34.81699617,104,1
"105",105,"Argentina",32,"ARG","Argentina","buenosaires","AR-B","ARG001","06","mercedes","Mercedes","ARG001083","Mercedes","532","Partido",2,"SOC","AR_B_06532",-59.42778721,-34.70090887,105,1
"106",106,"Argentina",32,"ARG","Argentina","buenosaires","AR-B","ARG001","06","merlo","Merlo","ARG001084","Merlo","539","Partido",2,"SOC","AR_B_06539",-58.74228506,-34.71459657,106,1
"107",107,"Argentina",32,"ARG","Argentina","buenosaires","AR-B","ARG001","06","monte","Monte","ARG001085","Monte","547","Partido",2,"SOC","AR_B_06547",-58.77320864,-35.51336315,107,1
"108",108,"Argentina",32,"ARG","Argentina","buenosaires","AR-B","ARG001","06","montehermoso","Monte Hermoso","ARG001086","Monte Hermoso","553","Partido",2,"SOC","AR_B_06553",-61.28565606,-38.96503483,108,1
"109",109,"Argentina",32,"ARG","Argentina","buenosaires","AR-B","ARG001","06","moreno","Moreno","ARG001087","Moreno","560","Partido",2,"SOC","AR_B_06560",-58.8112326,-34.61518356,109,1
"110",110,"Argentina",32,"ARG","Argentina","buenosaires","AR-B","ARG001","06","moron","Moron","ARG001088","Mor?ón","568","Partido",2,"SOC","AR_B_06568",-58.61955885,-34.65378415,110,1
"111",111,"Argentina",32,"ARG","Argentina","buenosaires","AR-B","ARG001","06","navarro","Navarro","ARG001089","Navarro","574","Partido",2,"SOC","AR_B_06574",-59.43495187,-35.03339111,111,1
"112",112,"Argentina",32,"ARG","Argentina","buenosaires","AR-B","ARG001","06","necochea","Necochea","ARG001090","Necochea","581","Partido",2,"SOC","AR_B_06581",-59.16968351,-38.25549276,112,1
"113",113,"Argentina",32,"ARG","Argentina","buenosaires","AR-B","ARG001","06","9dejulio","9 de Julio","ARG001002","9 de Julio","588","Partido",2,"SOC","AR_B_06588",-60.97515769,-35.48306458,113,1
"114",114,"Argentina",32,"ARG","Argentina","buenosaires","AR-B","ARG001","06","olavarria","Olavarria","ARG001091","Olavarr?ía","595","Partido",2,"SOC","AR_B_06595",-60.67493115,-36.85721132,114,1
"115",115,"Argentina",32,"ARG","Argentina","buenosaires","AR-B","ARG001","06","patagones","Patagones","ARG001092","Patagones","602","Partido",2,"SOC","AR_B_06602",-62.86050991,-40.19272157,115,1
"116",116,"Argentina",32,"ARG","Argentina","buenosaires","AR-B","ARG001","06","pehuajo","Pehuajo","ARG001093","Pehuaj?ó","609","Partido",2,"SOC","AR_B_06609",-61.92697788,-35.88514071,116,1
"117",117,"Argentina",32,"ARG","Argentina","buenosaires","AR-B","ARG001","06","pellegrini","Pellegrini","ARG001094","Pellegrini","616","Partido",2,"SOC","AR_B_06616",-63.22868026,-36.26967037,117,1
"118",118,"Argentina",32,"ARG","Argentina","buenosaires","AR-B","ARG001","06","pergamino","Pergamino","ARG001095","Pergamino","623","Partido",2,"SOC","AR_B_06623",-60.54807715,-33.83449645,118,1
"119",119,"Argentina",32,"ARG","Argentina","buenosaires","AR-B","ARG001","06","pila","Pila","ARG001096","Pila","630","Partido",2,"SOC","AR_B_06630",-58.34520601,-36.20477687,119,1
"120",120,"Argentina",32,"ARG","Argentina","buenosaires","AR-B","ARG001","06","pilar","Pilar","ARG001097","Pilar","638","Partido",2,"SOC","AR_B_06638",-58.90762758,-34.45410563,120,1
"121",121,"Argentina",32,"ARG","Argentina","buenosaires","AR-B","ARG001","06","pinamar","Pinamar","ARG001098","Pinamar","644","Partido",2,"SOC","AR_B_06644",-56.86461882,-37.10817694,121,1
"122",122,"Argentina",32,"ARG","Argentina","buenosaires","AR-B","ARG001","06","presidenteperon","Presidente Peron","ARG001099","Presidente Per?ón","648","Partido",2,"SOC","AR_B_06648",-58.41305604,-34.9375542,122,1
"123",123,"Argentina",32,"ARG","Argentina","buenosaires","AR-B","ARG001","06","puan","Puan","ARG001100","Pu?án","651","Partido",2,"SOC","AR_B_06651",-63.05917239,-38.07803772,123,1
"124",124,"Argentina",32,"ARG","Argentina","buenosaires","AR-B","ARG001","06","puntaindio","Punta Indio","ARG001101","Punta Indio","655","Partido",2,"SOC","AR_B_06655",-57.42033893,-35.40627173,124,1
"125",125,"Argentina",32,"ARG","Argentina","buenosaires","AR-B","ARG001","06","quilmes","Quilmes","ARG001102","Quilmes","658","Partido",2,"SOC","AR_B_06658",-58.27821158,-34.73965206,125,1
"126",126,"Argentina",32,"ARG","Argentina","buenosaires","AR-B","ARG001","06","ramallo","Ramallo","ARG001103","Ramallo","665","Partido",2,"SOC","AR_B_06665",-60.0567256,-33.58362137,126,1
"127",127,"Argentina",32,"ARG","Argentina","buenosaires","AR-B","ARG001","06","rauch","Rauch","ARG001104","Rauch","672","Partido",2,"SOC","AR_B_06672",-58.94801644,-36.57644202,127,1
"128",128,"Argentina",32,"ARG","Argentina","buenosaires","AR-B","ARG001","06","rivadavia","Rivadavia","ARG001105","Rivadavia","679","Partido",2,"SOC","AR_B_06679",-63.09565318,-35.58452771,128,1
"129",129,"Argentina",32,"ARG","Argentina","buenosaires","AR-B","ARG001","06","rojas","Rojas","ARG001106","Rojas","686","Partido",2,"SOC","AR_B_06686",-60.78828152,-34.19428883,129,1
"130",130,"Argentina",32,"ARG","Argentina","buenosaires","AR-B","ARG001","06","roqueperez","Roque Perez","ARG001107","Roque P?ÇÜrez","693","Partido",2,"SOC","AR_B_06693",-59.35986549,-35.48679222,130,1
"131",131,"Argentina",32,"ARG","Argentina","buenosaires","AR-B","ARG001","06","saavedra","Saavedra","ARG001108","Saavedra","700","Partido",2,"SOC","AR_B_06700",-62.43571841,-37.76908446,131,1
"132",132,"Argentina",32,"ARG","Argentina","buenosaires","AR-B","ARG001","06","saladillo","Saladillo","ARG001109","Saladillo","707","Partido",2,"SOC","AR_B_06707",-59.70769945,-35.68085896,132,1
"133",133,"Argentina",32,"ARG","Argentina","buenosaires","AR-B","ARG001","06","salto","Salto","ARG001111","Salto","714","Partido",2,"SOC","AR_B_06714",-60.30747483,-34.27182376,133,1
"134",134,"Argentina",32,"ARG","Argentina","buenosaires","AR-B","ARG001","06","salliquelo","Salliquelo","ARG001110","Salliquel?ó","721","Partido",2,"SOC","AR_B_06721",-63.04590547,-36.67392913,134,1
"135",135,"Argentina",32,"ARG","Argentina","buenosaires","AR-B","ARG001","06","sanandresdegiles","San Andres de Giles","ARG001112","San Andr?ÇÜs de Giles","728","Partido",2,"SOC","AR_B_06728",-59.47729554,-34.44162422,135,1
"136",136,"Argentina",32,"ARG","Argentina","buenosaires","AR-B","ARG001","06","sanantoniodeareco","San Antonio de Areco","ARG001113","San Antonio de Areco","735","Partido",2,"SOC","AR_B_06735",-59.52264516,-34.22350395,136,1
"137",137,"Argentina",32,"ARG","Argentina","buenosaires","AR-B","ARG001","06","sancayetano","San Cayetano","ARG001114","San Cayetano","742","Partido",2,"SOC","AR_B_06742",-59.58679125,-38.38878937,137,1
"138",138,"Argentina",32,"ARG","Argentina","buenosaires","AR-B","ARG001","06","sanfernando","San Fernando","ARG001115","San Fernando","749","Partido",2,"SOC","AR_B_06749",-58.56404327,-34.15231061,138,1
"139",139,"Argentina",32,"ARG","Argentina","buenosaires","AR-B","ARG001","06","sanisidro","San Isidro","ARG001116","San Isidro","756","Partido",2,"SOC","AR_B_06756",-58.53681743,-34.49166534,139,1
"140",140,"Argentina",32,"ARG","Argentina","buenosaires","AR-B","ARG001","06","sanmiguel","San Miguel","ARG001117","San Miguel","760","Partido",2,"SOC","AR_B_06760",-58.69180542,-34.55795671,140,1
"141",141,"Argentina",32,"ARG","Argentina","buenosaires","AR-B","ARG001","06","sannicolas","San Nicolas","ARG001118","San Nicol?ás","763","Partido",2,"SOC","AR_B_06763",-60.29108115,-33.47718267,141,1
"142",142,"Argentina",32,"ARG","Argentina","buenosaires","AR-B","ARG001","06","sanpedro","San Pedro","ARG001119","San Pedro","770","Partido",2,"SOC","AR_B_06770",-59.77895447,-33.77962428,142,1
"143",143,"Argentina",32,"ARG","Argentina","buenosaires","AR-B","ARG001","06","sanvicente","San Vicente","ARG001120","San Vicente","778","Partido",2,"SOC","AR_B_06778",-58.43515315,-35.07508158,143,1
"144",144,"Argentina",32,"ARG","Argentina","buenosaires","AR-B","ARG001","06","suipacha","Suipacha","ARG001121","Suipacha","784","Partido",2,"SOC","AR_B_06784",-59.70753337,-34.75378066,144,1
"145",145,"Argentina",32,"ARG","Argentina","buenosaires","AR-B","ARG001","06","tandil","Tandil","ARG001122","Tandil","791","Partido",2,"SOC","AR_B_06791",-59.18388733,-37.33932782,145,1
"146",146,"Argentina",32,"ARG","Argentina","buenosaires","AR-B","ARG001","06","tapalque","Tapalque","ARG001123","Tapalqu?ÇÜ","798","Partido",2,"SOC","AR_B_06798",-60.13056253,-36.34670326,146,1
"147",147,"Argentina",32,"ARG","Argentina","buenosaires","AR-B","ARG001","06","tigre","Tigre","ARG001124","Tigre","805","Partido",2,"SOC","AR_B_06805",-58.61328683,-34.38749768,147,1
"148",148,"Argentina",32,"ARG","Argentina","buenosaires","AR-B","ARG001","06","tordillo","Tordillo","ARG001125","Tordillo","812","Partido",2,"SOC","AR_B_06812",-57.28046895,-36.39292401,148,1
"149",149,"Argentina",32,"ARG","Argentina","buenosaires","AR-B","ARG001","06","tornquist","Tornquist","ARG001126","Tornquist","819","Partido",2,"SOC","AR_B_06819",-62.28767948,-38.25209246,149,1
"150",150,"Argentina",32,"ARG","Argentina","buenosaires","AR-B","ARG001","06","trenquelauquen","Trenque Lauquen","ARG001127","Trenque Lauquen","826","Partido",2,"SOC","AR_B_06826",-62.6329625,-36.05949238,150,1
"151",151,"Argentina",32,"ARG","Argentina","buenosaires","AR-B","ARG001","06","tresarroyos","Tres Arroyos","ARG001128","Tres Arroyos","833","Partido",2,"SOC","AR_B_06833",-60.23746705,-38.5125732,151,1
"152",152,"Argentina",32,"ARG","Argentina","buenosaires","AR-B","ARG001","06","3defebrero","3 de Febrero","ARG001129","3 de Febrero","840","Partido",2,"SOC","AR_B_06840",-58.57927899,-34.60077253,152,1
"153",153,"Argentina",32,"ARG","Argentina","buenosaires","AR-B","ARG001","06","treslomas","Tres Lomas","ARG001130","Tres Lomas","847","Partido",2,"SOC","AR_B_06847",-62.86465892,-36.49573726,153,1
"154",154,"Argentina",32,"ARG","Argentina","buenosaires","AR-B","ARG001","06","25demayo","25 de Mayo","ARG001001","25 de Mayo","854","Partido",2,"SOC","AR_B_06854",-60.23300022,-35.52785757,154,1
"155",155,"Argentina",32,"ARG","Argentina","buenosaires","AR-B","ARG001","06","vicentelopez","Vicente Lopez","ARG001131","Vicente L?ópez","861","Partido",2,"SOC","AR_B_06861",-58.50557477,-34.53206453,155,1
"156",156,"Argentina",32,"ARG","Argentina","buenosaires","AR-B","ARG001","06","villagesell","Villa Gesell","ARG001132","Villa Gesell","868","Partido",2,"SOC","AR_B_06868",-57.07213606,-37.38520714,156,1
"157",157,"Argentina",32,"ARG","Argentina","buenosaires","AR-B","ARG001","06","villarino","Villarino","ARG001133","Villarino","875","Partido",2,"SOC","AR_B_06875",-62.73726223,-39.13325922,157,1
"158",158,"Argentina",32,"ARG","Argentina","buenosaires","AR-B","ARG001","06","zarate","Zarate","ARG001134","Z?árate","882","Partido",2,"SOC","AR_B_06882",-59.12355613,-33.99385988,158,1
"159",159,"Argentina",32,"ARG","Argentina","ciudadautonomadebuenosaires","AR-C","ARG005","02","ciudadautonomadebuenosaires","Ciudad Autonoma de Buenos Aires","ARG005000","CABA","001","Departamento",2,"SOC","AR_C_02001",-58.45064353,-34.62384835,159,1
"160",160,"Argentina",32,"ARG","Argentina","sanluis","AR-D","ARG019","74","ayacucho","Ayacucho","ARG019001","Ayacucho","007","Departamento",2,"SOC","AR_D_74007",-66.53192643,-32.19760889,160,1
"161",161,"Argentina",32,"ARG","Argentina","sanluis","AR-D","ARG019","74","belgrano","Belgrano","ARG019002","Belgrano","014","Departamento",2,"SOC","AR_D_74014",-66.718196,-32.76714907,161,1
"162",162,"Argentina",32,"ARG","Argentina","sanluis","AR-D","ARG019","74","coronelpringles","Coronel Pringles","ARG019004","Coronel Pringles","021","Departamento",2,"SOC","AR_D_74021",-65.91431769,-33.17871497,162,1
"163",163,"Argentina",32,"ARG","Argentina","sanluis","AR-D","ARG019","74","chacabuco","Chacabuco","ARG019003","Chacabuco","028","Departamento",2,"SOC","AR_D_74028",-65.19879285,-32.73896365,163,1
"164",164,"Argentina",32,"ARG","Argentina","sanluis","AR-D","ARG019","74","generalpedernera","General Pedernera","ARG019005","General Pedernera","035","Departamento",2,"SOC","AR_D_74035",-65.54435641,-33.92875395,164,1
"165",165,"Argentina",32,"ARG","Argentina","sanluis","AR-D","ARG019","74","gobernadordupuy","Gobernador Dupuy","ARG019006","Gobernador Dupuy","042","Departamento",2,"SOC","AR_D_74042",-65.83599471,-35.33412356,165,1
"166",166,"Argentina",32,"ARG","Argentina","sanluis","AR-D","ARG019","74","junin","Junin","ARG019007","Jun?ín","049","Departamento",2,"SOC","AR_D_74049",-65.38420536,-32.21096161,166,1
"167",167,"Argentina",32,"ARG","Argentina","sanluis","AR-D","ARG019","74","pueyrredon","La Capital","ARG019008","Pueyrred??n","056","Departamento",2,"SOC","AR_D_74056",-66.52466782,-33.81651717,167,1
"168",168,"Argentina",32,"ARG","Argentina","sanluis","AR-D","ARG019","74","libertadorgeneralsanmartin","Libertador General San Martin","ARG019009","Libertador General San Mart?ín","063","Departamento",2,"SOC","AR_D_74063",-65.69174162,-32.59474959,168,1
"169",169,"Argentina",32,"ARG","Argentina","entrerios","AR-E","ARG008","30","colon","Colon","ARG008001","Col?ón","008","Departamento",2,"SOC","AR_E_30008",-58.3781065,-31.96312628,169,1
"170",170,"Argentina",32,"ARG","Argentina","entrerios","AR-E","ARG008","30","concordia","Concordia","ARG008002","Concordia","015","Departamento",2,"SOC","AR_E_30015",-58.24645346,-31.29062895,170,1
"171",171,"Argentina",32,"ARG","Argentina","entrerios","AR-E","ARG008","30","diamante","Diamante","ARG008003","Diamante","021","Departamento",2,"SOC","AR_E_30021",-60.53073382,-32.22759413,171,1
"172",172,"Argentina",32,"ARG","Argentina","entrerios","AR-E","ARG008","30","federacion","Federacion","ARG008004","Federaci?ón","028","Departamento",2,"SOC","AR_E_30028",-58.15457747,-30.71642278,172,1
"173",173,"Argentina",32,"ARG","Argentina","entrerios","AR-E","ARG008","30","federal","Federal","ARG008005","Federal","035","Departamento",2,"SOC","AR_E_30035",-58.88846898,-30.97055663,173,1
"174",174,"Argentina",32,"ARG","Argentina","entrerios","AR-E","ARG008","30","feliciano","Feliciano","ARG008006","Feliciano","042","Departamento",2,"SOC","AR_E_30042",-58.71579347,-30.39682934,174,1
"175",175,"Argentina",32,"ARG","Argentina","entrerios","AR-E","ARG008","30","gualeguay","Gualeguay","ARG008007","Gualeguay","049","Departamento",2,"SOC","AR_E_30049",-59.60536515,-33.09608052,175,1
"176",176,"Argentina",32,"ARG","Argentina","entrerios","AR-E","ARG008","30","gualeguaychu","Gualeguaychu","ARG008008","Gualeguaych?ú","056","Departamento",2,"SOC","AR_E_30056",-58.79596018,-33.00513478,176,1
"177",177,"Argentina",32,"ARG","Argentina","entrerios","AR-E","ARG008","30","islasdelibicuy","Islas del Ibicuy","ARG008009","Islas del Ibicuy","063","Departamento",2,"SOC","AR_E_30063",-58.98190572,-33.60087053,177,1
"178",178,"Argentina",32,"ARG","Argentina","entrerios","AR-E","ARG008","30","lapaz","La Paz","ARG008010","La Paz","070","Departamento",2,"SOC","AR_E_30070",-59.49140699,-30.8771677,178,1
"179",179,"Argentina",32,"ARG","Argentina","entrerios","AR-E","ARG008","30","nogoya","Nogoya","ARG008011","Nogoy?á","077","Departamento",2,"SOC","AR_E_30077",-59.78141812,-32.20224875,179,1
"180",180,"Argentina",32,"ARG","Argentina","entrerios","AR-E","ARG008","30","parana","Parana","ARG008012","Paran?á","084","Departamento",2,"SOC","AR_E_30084",-60.05270475,-31.68832295,180,1
"181",181,"Argentina",32,"ARG","Argentina","entrerios","AR-E","ARG008","30","sansalvador","San Salvador","ARG008013","San Salvador","088","Departamento",2,"SOC","AR_E_30088",-58.56129327,-31.52749061,181,1
"182",182,"Argentina",32,"ARG","Argentina","entrerios","AR-E","ARG008","30","tala","Tala","ARG008014","Tala","091","Departamento",2,"SOC","AR_E_30091",-59.27925661,-32.30928883,182,1
"183",183,"Argentina",32,"ARG","Argentina","entrerios","AR-E","ARG008","30","uruguay","Uruguay","ARG008015","Uruguay","098","Departamento",2,"SOC","AR_E_30098",-58.58735998,-32.43887868,183,1
"184",184,"Argentina",32,"ARG","Argentina","entrerios","AR-E","ARG008","30","victoria","Victoria","ARG008016","Victoria","105","Departamento",2,"SOC","AR_E_30105",-60.22129867,-32.76818068,184,1
"185",185,"Argentina",32,"ARG","Argentina","entrerios","AR-E","ARG008","30","villaguay","Villaguay","ARG008017","Villaguay","113","Departamento",2,"SOC","AR_E_30113",-59.08490312,-31.63565225,185,1
"186",186,"Argentina",32,"ARG","Argentina","larioja","AR-F","ARG012","46","arauco","Arauco","ARG012001","Arauco","007","Departamento",2,"SOC","AR_F_46007",-66.72383236,-28.53703533,186,1
"187",187,"Argentina",32,"ARG","Argentina","larioja","AR-F","ARG012","46","larioja","La Rioja","ARG012002","La Rioja (Capital)","014","Departamento",2,"SOC","AR_F_46014",-66.33776776,-29.46151772,187,1
"188",188,"Argentina",32,"ARG","Argentina","larioja","AR-F","ARG012","46","castrobarros","Castro Barros","ARG012003","Castro Barros","021","Departamento",2,"SOC","AR_F_46021",-66.91858366,-28.85998287,188,1
"189",189,"Argentina",32,"ARG","Argentina","larioja","AR-F","ARG012","46","coronelfelipevarela","Coronel Felipe Varela","ARG012006","Coronel Felipe Varela","028","Departamento",2,"SOC","AR_F_46028",-68.32333993,-29.44526119,189,1
"190",190,"Argentina",32,"ARG","Argentina","larioja","AR-F","ARG012","46","chamical","Chamical","ARG012004","Chamical","035","Departamento",2,"SOC","AR_F_46035",-65.95527771,-30.16728602,190,1
"191",191,"Argentina",32,"ARG","Argentina","larioja","AR-F","ARG012","46","chilecito","Chilecito","ARG012005","Chilecito","042","Departamento",2,"SOC","AR_F_46042",-67.42797665,-29.39580365,191,1
"192",192,"Argentina",32,"ARG","Argentina","larioja","AR-F","ARG012","46","famatina","Famatina","ARG012007","Famatina","049","Departamento",2,"SOC","AR_F_46049",-67.55908365,-28.69451825,192,1
"193",193,"Argentina",32,"ARG","Argentina","larioja","AR-F","ARG012","46","generalangelvpenaloza","General Angel V. Penaloza","ARG012008","General Angel V. Pe?ñaloza","056","Departamento",2,"SOC","AR_F_46056",-66.66305195,-30.31289595,193,1
"194",194,"Argentina",32,"ARG","Argentina","larioja","AR-F","ARG012","46","generalbelgrano","General Belgrano","ARG012009","General Belgrano","063","Departamento",2,"SOC","AR_F_46063",-65.93428632,-30.57734116,194,1
"195",195,"Argentina",32,"ARG","Argentina","larioja","AR-F","ARG012","46","generaljuanfquiroga","General Juan F. Quiroga","ARG012010","General Juan F. Quiroga","070","Departamento",2,"SOC","AR_F_46070",-66.85223869,-30.80191796,195,1
"196",196,"Argentina",32,"ARG","Argentina","larioja","AR-F","ARG012","46","generallamadrid","General Lamadrid","ARG012011","General Lamadrid","077","Departamento",2,"SOC","AR_F_46077",-68.68575599,-28.79530054,196,1
"197",197,"Argentina",32,"ARG","Argentina","larioja","AR-F","ARG012","46","generalocampo","General Ocampo","ARG012012","General Ocampo","084","Departamento",2,"SOC","AR_F_46084",-66.06072566,-31.00719926,197,1
"198",198,"Argentina",32,"ARG","Argentina","larioja","AR-F","ARG012","46","generalsanmartin","General San Martin","ARG012013","General San Mart?ín","091","Departamento",2,"SOC","AR_F_46091",-66.15386565,-31.64670249,198,1
"199",199,"Argentina",32,"ARG","Argentina","larioja","AR-F","ARG012","46","vinchina","Vinchina","ARG012018","Vinchina","098","Departamento",2,"SOC","AR_F_46098",-68.53078493,-28.30837921,199,1
"200",200,"Argentina",32,"ARG","Argentina","larioja","AR-F","ARG012","46","independencia","Independencia","ARG012014","Independencia","105","Departamento",2,"SOC","AR_F_46105",-67.32897852,-30.11426372,200,1
"201",201,"Argentina",32,"ARG","Argentina","larioja","AR-F","ARG012","46","rosarioverapenaloza","Rosario Vera Penaloza","ARG012015","Rosario Vera Pe?ñaloza","112","Departamento",2,"SOC","AR_F_46112",-66.67765747,-31.42578163,201,1
"202",202,"Argentina",32,"ARG","Argentina","larioja","AR-F","ARG012","46","sanblasdelossauces","San Blas de Los Sauces","ARG012016","San Blas de Los Sauces","119","Departamento",2,"SOC","AR_F_46119",-67.15765111,-28.53731628,202,1
"203",203,"Argentina",32,"ARG","Argentina","larioja","AR-F","ARG012","46","sanagasta","Sanagasta","ARG012017","Sanagasta","126","Departamento",2,"SOC","AR_F_46126",-67.06588207,-29.15852758,203,1
"204",204,"Argentina",32,"ARG","Argentina","santiagodelestero","AR-G","ARG022","86","aguirre","Aguirre","ARG022001","Aguirre","007","Departamento",2,"SOC","AR_G_86007",-62.55155659,-29.29866559,204,1
"205",205,"Argentina",32,"ARG","Argentina","santiagodelestero","AR-G","ARG022","86","alberdi","Alberdi","ARG022002","Alberdi","014","Departamento",2,"SOC","AR_G_86014",-62.74255161,-26.53249102,205,1
"206",206,"Argentina",32,"ARG","Argentina","santiagodelestero","AR-G","ARG022","86","atamisqui","Atamisqui","ARG022003","Atamisqui","021","Departamento",2,"SOC","AR_G_86021",-63.88265274,-28.69086994,206,1
"207",207,"Argentina",32,"ARG","Argentina","santiagodelestero","AR-G","ARG022","86","avellaneda","Avellaneda","ARG022004","Avellaneda","028","Departamento",2,"SOC","AR_G_86028",-63.2230803,-28.56212972,207,1
"208",208,"Argentina",32,"ARG","Argentina","santiagodelestero","AR-G","ARG022","86","banda","Banda","ARG022005","Banda","035","Departamento",2,"SOC","AR_G_86035",-64.22097934,-27.45022784,208,1
"209",209,"Argentina",32,"ARG","Argentina","santiagodelestero","AR-G","ARG022","86","belgrano","Belgrano","ARG022006","Belgrano","042","Departamento",2,"SOC","AR_G_86042",-62.22803025,-29.09624387,209,1
"210",210,"Argentina",32,"ARG","Argentina","santiagodelestero","AR-G","ARG022","86","santiagodelestero","Capital","ARG022007","Santiago Del Estero (Capital)","049","Departamento",2,"SOC","AR_G_86049",-64.44572894,-27.90992827,210,1
"211",211,"Argentina",32,"ARG","Argentina","santiagodelestero","AR-G","ARG022","86","copo","Copo","ARG022009","Copo","056","Departamento",2,"SOC","AR_G_86056",-62.7598092,-25.94630264,211,1
"212",212,"Argentina",32,"ARG","Argentina","santiagodelestero","AR-G","ARG022","86","choya","Choya","ARG022008","Choya","063","Departamento",2,"SOC","AR_G_86063",-64.77733442,-28.77851835,212,1
"213",213,"Argentina",32,"ARG","Argentina","santiagodelestero","AR-G","ARG022","86","figueroa","Figueroa","ARG022010","Figueroa","070","Departamento",2,"SOC","AR_G_86070",-63.58527044,-27.33825829,213,1
"214",214,"Argentina",32,"ARG","Argentina","santiagodelestero","AR-G","ARG022","86","generaltaboada","General Taboada","ARG022011","General Taboada","077","Departamento",2,"SOC","AR_G_86077",-62.35195638,-28.58506454,214,1
"215",215,"Argentina",32,"ARG","Argentina","santiagodelestero","AR-G","ARG022","86","guasayan","Guasayan","ARG022012","Guasay?án","084","Departamento",2,"SOC","AR_G_86084",-64.8794041,-27.98811416,215,1
"216",216,"Argentina",32,"ARG","Argentina","santiagodelestero","AR-G","ARG022","86","jimenez","Jimenez","ARG022013","Jim?ÇÜnez","091","Departamento",2,"SOC","AR_G_86091",-64.30186447,-26.92626609,216,1
"217",217,"Argentina",32,"ARG","Argentina","santiagodelestero","AR-G","ARG022","86","juanfibarra","Juan F. Ibarra","ARG022014","Juan F. Ibarra","098","Departamento",2,"SOC","AR_G_86098",-62.55194342,-28.05846303,217,1
"218",218,"Argentina",32,"ARG","Argentina","santiagodelestero","AR-G","ARG022","86","loreto","Loreto","ARG022015","Loreto","105","Departamento",2,"SOC","AR_G_86105",-64.31616858,-28.6224762,218,1
"219",219,"Argentina",32,"ARG","Argentina","santiagodelestero","AR-G","ARG022","86","mitre","Mitre","ARG022016","Mitre","112","Departamento",2,"SOC","AR_G_86112",-62.81829918,-29.51881261,219,1
"220",220,"Argentina",32,"ARG","Argentina","santiagodelestero","AR-G","ARG022","86","moreno","Moreno","ARG022017","Moreno","119","Departamento",2,"SOC","AR_G_86119",-62.46271121,-27.31109844,220,1
"221",221,"Argentina",32,"ARG","Argentina","santiagodelestero","AR-G","ARG022","86","ojodeagua","Ojo de Agua","ARG022018","Ojo de Agua","126","Departamento",2,"SOC","AR_G_86126",-64.01816209,-29.30401449,221,1
"222",222,"Argentina",32,"ARG","Argentina","santiagodelestero","AR-G","ARG022","86","pellegrini","Pellegrini","ARG022019","Pellegrini","133","Departamento",2,"SOC","AR_G_86133",-64.111656,-26.25657341,222,1
"223",223,"Argentina",32,"ARG","Argentina","santiagodelestero","AR-G","ARG022","86","quebrachos","Quebrachos","ARG022020","Quebrachos","140","Departamento",2,"SOC","AR_G_86140",-63.37050006,-29.38429784,223,1
"224",224,"Argentina",32,"ARG","Argentina","santiagodelestero","AR-G","ARG022","86","riohondo","Rio Hondo","ARG022021","R?ío Hondo","147","Departamento",2,"SOC","AR_G_86147",-64.77638007,-27.49388124,224,1
"225",225,"Argentina",32,"ARG","Argentina","santiagodelestero","AR-G","ARG022","86","rivadavia","Rivadavia","ARG022022","Rivadavia","154","Departamento",2,"SOC","AR_G_86154",-62.35084968,-29.98538169,225,1
"226",226,"Argentina",32,"ARG","Argentina","santiagodelestero","AR-G","ARG022","86","robles","Robles","ARG022023","Robles","161","Departamento",2,"SOC","AR_G_86161",-63.93437337,-27.87383719,226,1
"227",227,"Argentina",32,"ARG","Argentina","santiagodelestero","AR-G","ARG022","86","salavina","Salavina","ARG022024","Salavina","168","Departamento",2,"SOC","AR_G_86168",-63.33330487,-28.93604539,227,1
"228",228,"Argentina",32,"ARG","Argentina","santiagodelestero","AR-G","ARG022","86","sanmartin","San Martin","ARG022025","San Mart?ín","175","Departamento",2,"SOC","AR_G_86175",-63.87032325,-28.20176483,228,1
"229",229,"Argentina",32,"ARG","Argentina","santiagodelestero","AR-G","ARG022","86","sarmiento","Sarmiento","ARG022026","Sarmiento","182","Departamento",2,"SOC","AR_G_86182",-63.47246801,-28.10924503,229,1
"230",230,"Argentina",32,"ARG","Argentina","santiagodelestero","AR-G","ARG022","86","silipica","Silipica","ARG022027","Sil?ípica","189","Departamento",2,"SOC","AR_G_86189",-64.30218437,-28.20488277,230,1
"231",231,"Argentina",32,"ARG","Argentina","chaco","AR-H","ARG003","22","almirantebrown","Almirante Brown","ARG003006","Almirante Brown","007","Departamento",2,"SOC","AR_H_22007",-61.98761521,-25.74522302,231,1
"232",232,"Argentina",32,"ARG","Argentina","chaco","AR-H","ARG003","22","bermejo","Bermejo","ARG003007","Bermejo","014","Departamento",2,"SOC","AR_H_22014",-58.70476285,-26.95345353,232,1
"233",233,"Argentina",32,"ARG","Argentina","chaco","AR-H","ARG003","22","comandantefernandez","Comandante Fernandez","ARG003009","Comandante Fern?ández","021","Departamento",2,"SOC","AR_H_22021",-60.47083328,-26.78766631,233,1
"234",234,"Argentina",32,"ARG","Argentina","chaco","AR-H","ARG003","22","chacabuco","Chacabuco","ARG003008","Chacabuco","028","Departamento",2,"SOC","AR_H_22028",-61.31898682,-27.10983231,234,1
"235",235,"Argentina",32,"ARG","Argentina","chaco","AR-H","ARG003","22","12deoctubre","12 de Octubre","ARG003001","12 de Octubre","036","Departamento",2,"SOC","AR_H_22036",-61.46855654,-27.33332626,235,1
"236",236,"Argentina",32,"ARG","Argentina","chaco","AR-H","ARG003","22","2deabril","2 de Abril","ARG003003","2 de Abril","039","Departamento",2,"SOC","AR_H_22039",-61.32200834,-27.61552319,236,1
"237",237,"Argentina",32,"ARG","Argentina","chaco","AR-H","ARG003","22","frayjustosantamariadeoro","Fray Justo Santa Maria de Oro","ARG003010","Fray Justo Santa Mar?ía de Oro","043","Departamento",2,"SOC","AR_H_22043",-61.31926041,-27.85093422,237,1
"238",238,"Argentina",32,"ARG","Argentina","chaco","AR-H","ARG003","22","generalbelgrano","General Belgrano","ARG003011","General Belgrano","049","Departamento",2,"SOC","AR_H_22049",-61.07929275,-26.83336834,238,1
"239",239,"Argentina",32,"ARG","Argentina","chaco","AR-H","ARG003","22","generaldonovan","General Donovan","ARG003012","General Donovan","056","Departamento",2,"SOC","AR_H_22056",-59.35502372,-27.12847634,239,1
"240",240,"Argentina",32,"ARG","Argentina","chaco","AR-H","ARG003","22","generalguemes","General Guemes","ARG003013","General Guemes","063","Departamento",2,"SOC","AR_H_22063",-61.34799616,-25.22455337,240,1
"241",241,"Argentina",32,"ARG","Argentina","chaco","AR-H","ARG003","22","independencia","Independencia","ARG003014","Independencia","070","Departamento",2,"SOC","AR_H_22070",-60.76375276,-26.73013075,241,1
"242",242,"Argentina",32,"ARG","Argentina","chaco","AR-H","ARG003","22","libertad","Libertad","ARG003015","Libertad","077","Departamento",2,"SOC","AR_H_22077",-59.27301415,-27.34996419,242,1
"243",243,"Argentina",32,"ARG","Argentina","chaco","AR-H","ARG003","22","libertadorgeneralsanmartin","Libertador General San Martin","ARG003016","Libertador General San Mart?ín","084","Departamento",2,"SOC","AR_H_22084",-59.50147883,-26.36837996,243,1
"244",244,"Argentina",32,"ARG","Argentina","chaco","AR-H","ARG003","22","maipu","Maipu","ARG003017","Maip?ú","091","Departamento",2,"SOC","AR_H_22091",-60.45981059,-26.32530812,244,1
"245",245,"Argentina",32,"ARG","Argentina","chaco","AR-H","ARG003","22","mayorluisjfontana","Mayor Luis J. Fontana","ARG003018","Mayor Luis J. Fontana","098","Departamento",2,"SOC","AR_H_22098",-60.66988621,-27.73582192,245,1
"246",246,"Argentina",32,"ARG","Argentina","chaco","AR-H","ARG003","22","9dejulio","9 de Julio","ARG003005","9 de Julio","105","Departamento",2,"SOC","AR_H_22105",-61.27535459,-26.93584853,246,1
"247",247,"Argentina",32,"ARG","Argentina","chaco","AR-H","ARG003","22","ohiggins","O'Higgins","ARG003019","O'Higgins","112","Departamento",2,"SOC","AR_H_22112",-60.69573903,-27.24569504,247,1
"248",248,"Argentina",32,"ARG","Argentina","chaco","AR-H","ARG003","22","presidenciadelaplaza","Presidencia de La Plaza","ARG003020","Presidencia de La Plaza","119","Departamento",2,"SOC","AR_H_22119",-59.79188456,-27.03474877,248,1
"249",249,"Argentina",32,"ARG","Argentina","chaco","AR-H","ARG003","22","1rodemayo","1ro de Mayo","ARG003002","1ro de Mayo","126","Departamento",2,"SOC","AR_H_22126",-58.9665799,-27.16248004,249,1
"250",250,"Argentina",32,"ARG","Argentina","chaco","AR-H","ARG003","22","quitilipi","Quitilipi","ARG003021","Quitilipi","133","Departamento",2,"SOC","AR_H_22133",-60.18432109,-26.66801127,250,1
"251",251,"Argentina",32,"ARG","Argentina","chaco","AR-H","ARG003","22","sanfernando","San Fernando","ARG003022","San Fernando","140","Departamento",2,"SOC","AR_H_22140",-59.12361644,-27.71022975,251,1
"252",252,"Argentina",32,"ARG","Argentina","chaco","AR-H","ARG003","22","sanlorenzo","San Lorenzo","ARG003023","San Lorenzo","147","Departamento",2,"SOC","AR_H_22147",-60.37632135,-27.38906567,252,1
"253",253,"Argentina",32,"ARG","Argentina","chaco","AR-H","ARG003","22","sargentocabral","Sargento Cabral","ARG003024","Sargento Cabral","154","Departamento",2,"SOC","AR_H_22154",-59.53876112,-26.78623303,253,1
"254",254,"Argentina",32,"ARG","Argentina","chaco","AR-H","ARG003","22","tapenaga","Tapenaga","ARG003025","Tapenag?á","161","Departamento",2,"SOC","AR_H_22161",-59.83684667,-27.65392128,254,1
"255",255,"Argentina",32,"ARG","Argentina","chaco","AR-H","ARG003","22","25demayo","25 de Mayo","ARG003004","25 de Mayo","168","Departamento",2,"SOC","AR_H_22168",-60.03430726,-26.81411588,255,1
"256",256,"Argentina",32,"ARG","Argentina","sanjuan","AR-J","ARG018","70","albardon","Albardon","ARG018003","Albard?ón","007","Departamento",2,"SOC","AR_J_70007",-68.4487774,-31.20250872,256,1
"257",257,"Argentina",32,"ARG","Argentina","sanjuan","AR-J","ARG018","70","angaco","Angaco","ARG018004","Angaco","014","Departamento",2,"SOC","AR_J_70014",-68.12292585,-31.18274314,257,1
"258",258,"Argentina",32,"ARG","Argentina","sanjuan","AR-J","ARG018","70","calingasta","Calingasta","ARG018005","Calingasta","021","Departamento",2,"SOC","AR_J_70021",-69.83445916,-31.45890792,258,1
"259",259,"Argentina",32,"ARG","Argentina","sanjuan","AR-J","ARG018","70","sanjuan","Capital","ARG018006","San Juan (Capital)","028","Departamento",2,"SOC","AR_J_70028",-68.5322419,-31.52301639,259,1
"260",260,"Argentina",32,"ARG","Argentina","sanjuan","AR-J","ARG018","70","caucete","Caucete","ARG018007","Caucete","035","Departamento",2,"SOC","AR_J_70035",-67.54244347,-31.50813817,260,1
"261",261,"Argentina",32,"ARG","Argentina","sanjuan","AR-J","ARG018","70","chimbas","Chimbas","ARG018008","Chimbas","042","Departamento",2,"SOC","AR_J_70042",-68.52112281,-31.47802499,261,1
"262",262,"Argentina",32,"ARG","Argentina","sanjuan","AR-J","ARG018","70","iglesia","Iglesia","ARG018009","Iglesia","049","Departamento",2,"SOC","AR_J_70049",-69.43731893,-29.60772577,262,1
"263",263,"Argentina",32,"ARG","Argentina","sanjuan","AR-J","ARG018","70","jachal","Jachal","ARG018010","J?áchal","056","Departamento",2,"SOC","AR_J_70056",-68.43520653,-30.34928401,263,1
"264",264,"Argentina",32,"ARG","Argentina","sanjuan","AR-J","ARG018","70","9dejulio","9 de Julio","ARG018002","9 de Julio","063","Departamento",2,"SOC","AR_J_70063",-68.38963755,-31.63982763,264,1
"265",265,"Argentina",32,"ARG","Argentina","sanjuan","AR-J","ARG018","70","pocito","Pocito","ARG018011","Pocito","070","Departamento",2,"SOC","AR_J_70070",-68.58233483,-31.73910868,265,1
"266",266,"Argentina",32,"ARG","Argentina","sanjuan","AR-J","ARG018","70","rawson","Rawson","ARG018012","Rawson","077","Departamento",2,"SOC","AR_J_70077",-68.46751618,-31.68017948,266,1
"267",267,"Argentina",32,"ARG","Argentina","sanjuan","AR-J","ARG018","70","rivadavia","Rivadavia","ARG018013","Rivadavia","084","Departamento",2,"SOC","AR_J_70084",-68.63826039,-31.54840389,267,1
"268",268,"Argentina",32,"ARG","Argentina","sanjuan","AR-J","ARG018","70","sanmartin","San Martin","ARG018014","San Mart?ín","091","Departamento",2,"SOC","AR_J_70091",-68.19883797,-31.51764112,268,1
"269",269,"Argentina",32,"ARG","Argentina","sanjuan","AR-J","ARG018","70","santalucia","Santa Lucia","ARG018015","Santa Luc?ía","098","Departamento",2,"SOC","AR_J_70098",-68.46141456,-31.52004231,269,1
"270",270,"Argentina",32,"ARG","Argentina","sanjuan","AR-J","ARG018","70","sarmiento","Sarmiento","ARG018016","Sarmiento","105","Departamento",2,"SOC","AR_J_70105",-68.69970943,-32.06214311,270,1
"271",271,"Argentina",32,"ARG","Argentina","sanjuan","AR-J","ARG018","70","ullum","Ullum","ARG018017","Ullum","112","Departamento",2,"SOC","AR_J_70112",-68.8840912,-31.08178372,271,1
"272",272,"Argentina",32,"ARG","Argentina","sanjuan","AR-J","ARG018","70","vallefertil","Valle Fertil","ARG018018","Valle F?ÇÜrtil","119","Departamento",2,"SOC","AR_J_70119",-67.52104714,-30.6927641,272,1
"273",273,"Argentina",32,"ARG","Argentina","sanjuan","AR-J","ARG018","70","25demayo","25 de Mayo","ARG018001","25 de Mayo","126","Departamento",2,"SOC","AR_J_70126",-67.84017627,-31.98250387,273,1
"274",274,"Argentina",32,"ARG","Argentina","sanjuan","AR-J","ARG018","70","zonda","Zonda","ARG018019","Zonda","133","Departamento",2,"SOC","AR_J_70133",-68.95820623,-31.62503031,274,1
"275",275,"Argentina",32,"ARG","Argentina","catamarca","AR-K","ARG002","10","ambato","Ambato","ARG002001","Ambato","007","Departamento",2,"SOC","AR_K_10007",-65.91973249,-28.00884498,275,1
"276",276,"Argentina",32,"ARG","Argentina","catamarca","AR-K","ARG002","10","ancasti","Ancasti","ARG002002","Ancasti","014","Departamento",2,"SOC","AR_K_10014",-65.48995562,-28.93916616,276,1
"277",277,"Argentina",32,"ARG","Argentina","catamarca","AR-K","ARG002","10","andalgala","Andalgala","ARG002003","Andalgal?á","021","Departamento",2,"SOC","AR_K_10021",-66.34415978,-27.57767853,277,1
"278",278,"Argentina",32,"ARG","Argentina","catamarca","AR-K","ARG002","10","antofagastadelasierra","Antofagasta de La Sierra","ARG002004","Antofagasta de La Sierra","028","Departamento",2,"SOC","AR_K_10028",-67.67163795,-25.96610658,278,1
"279",279,"Argentina",32,"ARG","Argentina","catamarca","AR-K","ARG002","10","belen","Belen","ARG002005","Bel?ÇÜn","035","Departamento",2,"SOC","AR_K_10035",-66.9058202,-27.09963743,279,1
"280",280,"Argentina",32,"ARG","Argentina","catamarca","AR-K","ARG002","10","capayan","Capayan","ARG002006","Capay?án","042","Departamento",2,"SOC","AR_K_10042",-65.91835993,-28.87252667,280,1
"281",281,"Argentina",32,"ARG","Argentina","catamarca","AR-K","ARG002","10","sanfernando","Capital","ARG002007","San Fernando del Valle","049","Departamento",2,"SOC","AR_K_10049",-65.83106266,-28.39626023,281,1
"282",282,"Argentina",32,"ARG","Argentina","catamarca","AR-K","ARG002","10","elalto","El Alto","ARG002008","El Alto","056","Departamento",2,"SOC","AR_K_10056",-65.37787821,-28.4306998,282,1
"283",283,"Argentina",32,"ARG","Argentina","catamarca","AR-K","ARG002","10","fraymamertoesquiu","Fray Mamerto Esquiu","ARG002009","Fray Mamerto Esqui?ú","063","Departamento",2,"SOC","AR_K_10063",-65.73012165,-28.29614888,283,1
"284",284,"Argentina",32,"ARG","Argentina","catamarca","AR-K","ARG002","10","lapaz","La Paz","ARG002010","La Paz","070","Departamento",2,"SOC","AR_K_10070",-65.19053063,-29.40849737,284,1
"285",285,"Argentina",32,"ARG","Argentina","catamarca","AR-K","ARG002","10","paclin","Paclin","ARG002011","Pacl?¡n","077","Departamento",2,"SOC","AR_K_10077",-65.65840448,-28.10637698,285,1
"286",286,"Argentina",32,"ARG","Argentina","catamarca","AR-K","ARG002","10","poman","Poman","ARG002012","Pom?án","084","Departamento",2,"SOC","AR_K_10084",-66.39039581,-28.2171291,286,1
"287",287,"Argentina",32,"ARG","Argentina","catamarca","AR-K","ARG002","10","santamaria","Santa Maria","ARG002013","Santa Mar?ía","091","Departamento",2,"SOC","AR_K_10091",-66.27503362,-26.77900522,287,1
"288",288,"Argentina",32,"ARG","Argentina","catamarca","AR-K","ARG002","10","santarosa","Santa Rosa","ARG002014","Santa Rosa","098","Departamento",2,"SOC","AR_K_10098",-65.31517557,-28.07843122,288,1
"289",289,"Argentina",32,"ARG","Argentina","catamarca","AR-K","ARG002","10","tinogasta","Tinogasta","ARG002015","Tinogasta","105","Departamento",2,"SOC","AR_K_10105",-67.92824366,-27.5494183,289,1
"290",290,"Argentina",32,"ARG","Argentina","catamarca","AR-K","ARG002","10","valleviejo","Valle Viejo","ARG002016","Valle Viejo","112","Departamento",2,"SOC","AR_K_10112",-65.70751667,-28.590519,290,1
"291",291,"Argentina",32,"ARG","Argentina","lapampa","AR-L","ARG011","42","atreuco","Atreuco","ARG011001","Atreuc?ó","007","Departamento",2,"SOC","AR_L_42007",-63.77873816,-37.04047718,291,1
"292",292,"Argentina",32,"ARG","Argentina","lapampa","AR-L","ARG011","42","caleucaleu","Caleu Caleu","ARG011002","Caleu Caleu","014","Departamento",2,"SOC","AR_L_42014",-63.89132557,-38.67619952,292,1
"293",293,"Argentina",32,"ARG","Argentina","lapampa","AR-L","ARG011","42","santarosa","Capital","ARG011003","Santa Rosa","021","Departamento",2,"SOC","AR_L_42021",-64.18949983,-36.50450667,293,1
"294",294,"Argentina",32,"ARG","Argentina","lapampa","AR-L","ARG011","42","catrilo","Catrilo","ARG011004","Catril?ó","028","Departamento",2,"SOC","AR_L_42028",-63.66431227,-36.58874926,294,1
"295",295,"Argentina",32,"ARG","Argentina","lapampa","AR-L","ARG011","42","conhelo","Conhelo","ARG011008","Conhelo","035","Departamento",2,"SOC","AR_L_42035",-64.50340306,-36.03794888,295,1
"296",296,"Argentina",32,"ARG","Argentina","lapampa","AR-L","ARG011","42","curaco","Curaco","ARG011009","Curac?ó","042","Departamento",2,"SOC","AR_L_42042",-66.31099894,-38.18536242,296,1
"297",297,"Argentina",32,"ARG","Argentina","lapampa","AR-L","ARG011","42","chalileo","Chalileo","ARG011005","Chalileo","049","Departamento",2,"SOC","AR_L_42049",-66.55653507,-36.39549093,297,1
"298",298,"Argentina",32,"ARG","Argentina","lapampa","AR-L","ARG011","42","chapaleufu","Chapaleufu","ARG011006","Chapaleuf?ú","056","Departamento",2,"SOC","AR_L_42056",-63.66557732,-35.22898537,298,1
"299",299,"Argentina",32,"ARG","Argentina","lapampa","AR-L","ARG011","42","chicalco","Chical Co","ARG011007","Chical Co","063","Departamento",2,"SOC","AR_L_42063",-67.68000292,-36.40284887,299,1
"300",300,"Argentina",32,"ARG","Argentina","lapampa","AR-L","ARG011","42","guatrache","Guatrache","ARG011010","Guatrach?ÇÜ","070","Departamento",2,"SOC","AR_L_42070",-63.77930863,-37.49407984,300,1
"301",301,"Argentina",32,"ARG","Argentina","lapampa","AR-L","ARG011","42","hucal","Hucal","ARG011011","Hucal","077","Departamento",2,"SOC","AR_L_42077",-63.95024118,-37.98703779,301,1
"302",302,"Argentina",32,"ARG","Argentina","lapampa","AR-L","ARG011","42","lihuelcalel","Lihuel Calel","ARG011012","Lihuel Calel","084","Departamento",2,"SOC","AR_L_42084",-65.07949975,-38.26507861,302,1
"303",303,"Argentina",32,"ARG","Argentina","lapampa","AR-L","ARG011","42","limaymahuida","Limay Mahuida","ARG011013","Limay Mahuida","091","Departamento",2,"SOC","AR_L_42091",-66.53651647,-37.2462319,303,1
"304",304,"Argentina",32,"ARG","Argentina","lapampa","AR-L","ARG011","42","loventue","Loventue","ARG011014","Loventu?ÇÜ","098","Departamento",2,"SOC","AR_L_42098",-65.51790767,-36.48150683,304,1
"305",305,"Argentina",32,"ARG","Argentina","lapampa","AR-L","ARG011","42","maraco","Maraco","ARG011015","Marac?ó","105","Departamento",2,"SOC","AR_L_42105",-63.66420495,-35.68646826,305,1
"306",306,"Argentina",32,"ARG","Argentina","lapampa","AR-L","ARG011","42","puelen","Puelen","ARG011016","Puel?ÇÜn","112","Departamento",2,"SOC","AR_L_42112",-67.59216299,-37.43850784,306,1
"307",307,"Argentina",32,"ARG","Argentina","lapampa","AR-L","ARG011","42","quemuquemu","Quemu Quemu","ARG011017","Quem?ú Quem?ú","119","Departamento",2,"SOC","AR_L_42119",-63.66435813,-36.13896133,307,1
"308",308,"Argentina",32,"ARG","Argentina","lapampa","AR-L","ARG011","42","rancul","Rancul","ARG011018","Rancul","126","Departamento",2,"SOC","AR_L_42126",-64.79525664,-35.40376577,308,1
"309",309,"Argentina",32,"ARG","Argentina","lapampa","AR-L","ARG011","42","realico","Realico","ARG011019","Realic?ó","133","Departamento",2,"SOC","AR_L_42133",-64.21162777,-35.2291659,309,1
"310",310,"Argentina",32,"ARG","Argentina","lapampa","AR-L","ARG011","42","toay","Toay","ARG011020","Toay","140","Departamento",2,"SOC","AR_L_42140",-64.68275902,-36.67053455,310,1
"311",311,"Argentina",32,"ARG","Argentina","lapampa","AR-L","ARG011","42","trenel","Trenel","ARG011021","Trenel","147","Departamento",2,"SOC","AR_L_42147",-64.21162703,-35.63824167,311,1
"312",312,"Argentina",32,"ARG","Argentina","lapampa","AR-L","ARG011","42","utracan","Utracan","ARG011022","Utrac?án","154","Departamento",2,"SOC","AR_L_42154",-65.06845535,-37.34302716,312,1
"313",313,"Argentina",32,"ARG","Argentina","mendoza","AR-M","ARG013","50","mendoza","Capital","ARG013001","Mendoza (Capital)","007","Departamento",2,"SOC","AR_M_50007",-68.89419544,-32.88433427,313,1
"314",314,"Argentina",32,"ARG","Argentina","mendoza","AR-M","ARG013","50","generalalvear","General Alvear","ARG013002","General Alvear","014","Departamento",2,"SOC","AR_M_50014",-67.08533295,-35.20486523,314,1
"315",315,"Argentina",32,"ARG","Argentina","mendoza","AR-M","ARG013","50","godoycruz","Godoy Cruz","ARG013003","Godoy Cruz","021","Departamento",2,"SOC","AR_M_50021",-68.88702044,-32.93200574,315,1
"316",316,"Argentina",32,"ARG","Argentina","mendoza","AR-M","ARG013","50","guaymallen","Guaymallen","ARG013004","Guaymall?ÇÜn","028","Departamento",2,"SOC","AR_M_50028",-68.71579163,-32.88166953,316,1
"317",317,"Argentina",32,"ARG","Argentina","mendoza","AR-M","ARG013","50","junin","Junin","ARG013005","Jun?ín","035","Departamento",2,"SOC","AR_M_50035",-68.48191838,-33.14424184,317,1
"318",318,"Argentina",32,"ARG","Argentina","mendoza","AR-M","ARG013","50","lapaz","La Paz","ARG013006","La Paz","042","Departamento",2,"SOC","AR_M_50042",-67.27329958,-33.69368622,318,1
"319",319,"Argentina",32,"ARG","Argentina","mendoza","AR-M","ARG013","50","lasheras","Las Heras","ARG013007","Las Heras","049","Departamento",2,"SOC","AR_M_50049",-69.2590963,-32.52185275,319,1
"320",320,"Argentina",32,"ARG","Argentina","mendoza","AR-M","ARG013","50","lavalle","Lavalle","ARG013008","Lavalle","056","Departamento",2,"SOC","AR_M_50056",-67.89889934,-32.57291147,320,1
"321",321,"Argentina",32,"ARG","Argentina","mendoza","AR-M","ARG013","50","lujandecuyo","Lujan de Cuyo","ARG013009","Luj?án de Cuyo","063","Departamento",2,"SOC","AR_M_50063",-69.44551903,-33.03857478,321,1
"322",322,"Argentina",32,"ARG","Argentina","mendoza","AR-M","ARG013","50","maipu","Maipu","ARG013010","Maip?ú","070","Departamento",2,"SOC","AR_M_50070",-68.65804095,-32.9830296,322,1
"323",323,"Argentina",32,"ARG","Argentina","mendoza","AR-M","ARG013","50","malargue","Malargue","ARG013011","Malarg?üe","077","Departamento",2,"SOC","AR_M_50077",-69.30884543,-36.15442103,323,1
"324",324,"Argentina",32,"ARG","Argentina","mendoza","AR-M","ARG013","50","rivadavia","Rivadavia","ARG013012","Rivadavia","084","Departamento",2,"SOC","AR_M_50084",-68.60173123,-33.41649068,324,1
"325",325,"Argentina",32,"ARG","Argentina","mendoza","AR-M","ARG013","50","sancarlos","San Carlos","ARG013013","San Carlos","091","Departamento",2,"SOC","AR_M_50091",-69.08979537,-34.07072191,325,1
"326",326,"Argentina",32,"ARG","Argentina","mendoza","AR-M","ARG013","50","sanmartin","San Martin","ARG013014","San Mart?ín","098","Departamento",2,"SOC","AR_M_50098",-68.28757981,-32.91172535,326,1
"327",327,"Argentina",32,"ARG","Argentina","mendoza","AR-M","ARG013","50","sanrafael","San Rafael","ARG013015","San Rafael","105","Departamento",2,"SOC","AR_M_50105",-68.36943429,-34.94966172,327,1
"328",328,"Argentina",32,"ARG","Argentina","mendoza","AR-M","ARG013","50","santarosa","Santa Rosa","ARG013016","Santa Rosa","112","Departamento",2,"SOC","AR_M_50112",-67.96171976,-33.6077043,328,1
"329",329,"Argentina",32,"ARG","Argentina","mendoza","AR-M","ARG013","50","tunuyan","Tunuyan","ARG013017","Tunuy?án","119","Departamento",2,"SOC","AR_M_50119",-69.50908751,-33.6224399,329,1
"330",330,"Argentina",32,"ARG","Argentina","mendoza","AR-M","ARG013","50","tupungato","Tupungato","ARG013018","Tupungato","126","Departamento",2,"SOC","AR_M_50126",-69.30291233,-33.29264489,330,1
"331",331,"Argentina",32,"ARG","Argentina","misiones","AR-N","ARG014","54","apostoles","Apostoles","ARG014002","Ap?óstoles","007","Departamento",2,"SOC","AR_N_54007",-55.67673806,-27.88332455,331,1
"332",332,"Argentina",32,"ARG","Argentina","misiones","AR-N","ARG014","54","cainguas","Cainguas","ARG014003","Caingu?ás","014","Departamento",2,"SOC","AR_N_54014",-54.80222873,-27.14320619,332,1
"333",333,"Argentina",32,"ARG","Argentina","misiones","AR-N","ARG014","54","candelaria","Candelaria","ARG014004","Candelaria","021","Departamento",2,"SOC","AR_N_54021",-55.58642747,-27.45489941,333,1
"334",334,"Argentina",32,"ARG","Argentina","misiones","AR-N","ARG014","54","posadas","Capital","ARG014005","Posadas","028","Departamento",2,"SOC","AR_N_54028",-55.85880418,-27.54191176,334,1
"335",335,"Argentina",32,"ARG","Argentina","misiones","AR-N","ARG014","54","concepcion","Concepcion","ARG014006","Concepci?ón","035","Departamento",2,"SOC","AR_N_54035",-55.46512988,-27.92999817,335,1
"336",336,"Argentina",32,"ARG","Argentina","misiones","AR-N","ARG014","54","eldorado","El Dorado","ARG014007","El Dorado","042","Departamento",2,"SOC","AR_N_54042",-54.4224664,-26.31672678,336,1
"337",337,"Argentina",32,"ARG","Argentina","misiones","AR-N","ARG014","54","generalmanuelbelgrano","General Manuel Belgrano","ARG014008","General Manuel Belgrano","049","Departamento",2,"SOC","AR_N_54049",-53.95607455,-26.02131375,337,1
"338",338,"Argentina",32,"ARG","Argentina","misiones","AR-N","ARG014","54","guarani","Guarani","ARG014009","Guaran?í","056","Departamento",2,"SOC","AR_N_54056",-54.26665419,-27.02748042,338,1
"339",339,"Argentina",32,"ARG","Argentina","misiones","AR-N","ARG014","54","iguazu","Iguazu","ARG014010","Iguaz?ú","063","Departamento",2,"SOC","AR_N_54063",-54.4058727,-25.8765317,339,1
"340",340,"Argentina",32,"ARG","Argentina","misiones","AR-N","ARG014","54","leandronalem","Leandro N. Alem","ARG014011","Leandro N. Alem","070","Departamento",2,"SOC","AR_N_54070",-55.38599159,-27.6256069,340,1
"341",341,"Argentina",32,"ARG","Argentina","misiones","AR-N","ARG014","54","libertadorgralsanmartin","Libertador Gral. San Martin","ARG014012","Libertador Gral. San Mart?ín","077","Departamento",2,"SOC","AR_N_54077",-54.91995254,-26.88435561,341,1
"342",342,"Argentina",32,"ARG","Argentina","misiones","AR-N","ARG014","54","montecarlo","Montecarlo","ARG014013","Montecarlo","084","Departamento",2,"SOC","AR_N_54084",-54.56427941,-26.65414767,342,1
"343",343,"Argentina",32,"ARG","Argentina","misiones","AR-N","ARG014","54","obera","Obera","ARG014014","Ober?á","091","Departamento",2,"SOC","AR_N_54091",-55.06990525,-27.47174963,343,1
"344",344,"Argentina",32,"ARG","Argentina","misiones","AR-N","ARG014","54","sanignacio","San Ignacio","ARG014015","San Ignacio","098","Departamento",2,"SOC","AR_N_54098",-55.34737072,-27.1715714,344,1
"345",345,"Argentina",32,"ARG","Argentina","misiones","AR-N","ARG014","54","sanjavier","San Javier","ARG014016","San Javier","105","Departamento",2,"SOC","AR_N_54105",-55.16642646,-27.77588717,345,1
"346",346,"Argentina",32,"ARG","Argentina","misiones","AR-N","ARG014","54","sanpedro","San Pedro","ARG014017","San Pedro","112","Departamento",2,"SOC","AR_N_54112",-53.95104211,-26.67374105,346,1
"347",347,"Argentina",32,"ARG","Argentina","misiones","AR-N","ARG014","54","25demayo","25 de Mayo","ARG014001","25 de Mayo","119","Departamento",2,"SOC","AR_N_54119",-54.63484684,-27.37732787,347,1
"348",348,"Argentina",32,"ARG","Argentina","formosa","AR-P","ARG009","34","bermejo","Bermejo","ARG009001","Bermejo","007","Departamento",2,"SOC","AR_P_34007",-61.28554534,-24.03031081,348,1
"349",349,"Argentina",32,"ARG","Argentina","formosa","AR-P","ARG009","34","formosa","Formosa","ARG009002","Formosa","014","Departamento",2,"SOC","AR_P_34014",-58.37276293,-25.94179065,349,1
"350",350,"Argentina",32,"ARG","Argentina","formosa","AR-P","ARG009","34","laishi","Laishi","ARG009003","Laishi","021","Departamento",2,"SOC","AR_P_34021",-58.55942697,-26.46557884,350,1
"351",351,"Argentina",32,"ARG","Argentina","formosa","AR-P","ARG009","34","matacos","Matacos","ARG009004","Matacos","028","Departamento",2,"SOC","AR_P_34028",-62.08087739,-23.85530168,351,1
"352",352,"Argentina",32,"ARG","Argentina","formosa","AR-P","ARG009","34","patino","Patino","ARG009005","Pati?ño","035","Departamento",2,"SOC","AR_P_34035",-59.95837802,-24.87745428,352,1
"353",353,"Argentina",32,"ARG","Argentina","formosa","AR-P","ARG009","34","pilagas","Pilagas","ARG009006","Pilag?ís","042","Departamento",2,"SOC","AR_P_34042",-58.66135117,-25.1049492,353,1
"354",354,"Argentina",32,"ARG","Argentina","formosa","AR-P","ARG009","34","pilcomayo","Pilcomayo","ARG009007","Pilcomayo","049","Departamento",2,"SOC","AR_P_34049",-58.0620799,-25.37092152,354,1
"355",355,"Argentina",32,"ARG","Argentina","formosa","AR-P","ARG009","34","pirane","Pirane","ARG009008","Piran?ÇÜ","056","Departamento",2,"SOC","AR_P_34056",-59.15899961,-25.76575185,355,1
"356",356,"Argentina",32,"ARG","Argentina","formosa","AR-P","ARG009","34","ramonlista","Ramon Lista","ARG009009","Ram?ón Lista","063","Departamento",2,"SOC","AR_P_34063",-62.14124383,-23.12184875,356,1
"357",357,"Argentina",32,"ARG","Argentina","neuquen","AR-Q","ARG015","58","alumine","Alumine","ARG015001","Alumin?ÇÜ","007","Departamento",2,"SOC","AR_Q_58007",-71.06136829,-39.13765586,357,1
"358",358,"Argentina",32,"ARG","Argentina","neuquen","AR-Q","ARG015","58","anelo","Anelo","ARG015002","A?ñelo","014","Departamento",2,"SOC","AR_Q_58014",-69.01790375,-38.12660579,358,1
"359",359,"Argentina",32,"ARG","Argentina","neuquen","AR-Q","ARG015","58","catanlil","Catan Lil","ARG015003","Cat?án Lil","021","Departamento",2,"SOC","AR_Q_58021",-70.45693158,-39.49295687,359,1
"360",360,"Argentina",32,"ARG","Argentina","neuquen","AR-Q","ARG015","58","colloncura","Collon Cura","ARG015005","Coll?ón Cur?á","028","Departamento",2,"SOC","AR_Q_58028",-70.29520952,-40.0653548,360,1
"361",361,"Argentina",32,"ARG","Argentina","neuquen","AR-Q","ARG015","58","confluencia","Confluencia","ARG015006","Confluencia","035","Departamento",2,"SOC","AR_Q_58035",-68.81744229,-38.84330182,361,1
"362",362,"Argentina",32,"ARG","Argentina","neuquen","AR-Q","ARG015","58","chosmalal","Chos Malal","ARG015004","Chos Malal","042","Departamento",2,"SOC","AR_Q_58042",-70.27451672,-36.87198716,362,1
"363",363,"Argentina",32,"ARG","Argentina","neuquen","AR-Q","ARG015","58","huiliches","Huiliches","ARG015007","Huiliches","049","Departamento",2,"SOC","AR_Q_58049",-71.26802523,-39.80322838,363,1
"364",364,"Argentina",32,"ARG","Argentina","neuquen","AR-Q","ARG015","58","lacar","Lacar","ARG015008","L?ácar","056","Departamento",2,"SOC","AR_Q_58056",-71.19414964,-40.3231035,364,1
"365",365,"Argentina",32,"ARG","Argentina","neuquen","AR-Q","ARG015","58","loncopue","Loncopue","ARG015009","Loncopu?ÇÜ","063","Departamento",2,"SOC","AR_Q_58063",-70.32733847,-38.07088725,365,1
"366",366,"Argentina",32,"ARG","Argentina","neuquen","AR-Q","ARG015","58","loslagos","Los Lagos","ARG015010","Los Lagos","070","Departamento",2,"SOC","AR_Q_58070",-71.49331089,-40.78356081,366,1
"367",367,"Argentina",32,"ARG","Argentina","neuquen","AR-Q","ARG015","58","minas","Minas","ARG015011","Minas","077","Departamento",2,"SOC","AR_Q_58077",-70.7744533,-36.86237517,367,1
"368",368,"Argentina",32,"ARG","Argentina","neuquen","AR-Q","ARG015","58","norquin","Norquin","ARG015012","?Ñorqu?ín","084","Departamento",2,"SOC","AR_Q_58084",-70.6825777,-37.63710593,368,1
"369",369,"Argentina",32,"ARG","Argentina","neuquen","AR-Q","ARG015","58","pehuenches","Pehuenches","ARG015013","Pehuenches","091","Departamento",2,"SOC","AR_Q_58091",-69.37113168,-37.42526384,369,1
"370",370,"Argentina",32,"ARG","Argentina","neuquen","AR-Q","ARG015","58","picunleufu","Picun Leufu","ARG015014","Pic?ún Leuf?ú","098","Departamento",2,"SOC","AR_Q_58098",-69.45515386,-39.41781314,370,1
"371",371,"Argentina",32,"ARG","Argentina","neuquen","AR-Q","ARG015","58","picunches","Picunches","ARG015015","Picunches","105","Departamento",2,"SOC","AR_Q_58105",-70.38332477,-38.57848566,371,1
"372",372,"Argentina",32,"ARG","Argentina","neuquen","AR-Q","ARG015","58","zapala","Zapala","ARG015016","Zapala","112","Departamento",2,"SOC","AR_Q_58112",-69.86197838,-38.93332541,372,1
"373",373,"Argentina",32,"ARG","Argentina","rionegro","AR-R","ARG016","62","adolfoalsina","Adolfo Alsina","ARG016003","Adolfo Alsina","007","Departamento",2,"SOC","AR_R_62007",-63.7664997,-40.79374532,373,1
"374",374,"Argentina",32,"ARG","Argentina","rionegro","AR-R","ARG016","62","avellaneda","Avellaneda","ARG016004","Avellaneda","014","Departamento",2,"SOC","AR_R_62014",-66.21993543,-39.41510214,374,1
"375",375,"Argentina",32,"ARG","Argentina","rionegro","AR-R","ARG016","62","bariloche","Bariloche","ARG016005","Bariloche","021","Departamento",2,"SOC","AR_R_62021",-71.5277248,-41.50156487,375,1
"376",376,"Argentina",32,"ARG","Argentina","rionegro","AR-R","ARG016","62","conesa","Conesa","ARG016006","Conesa","028","Departamento",2,"SOC","AR_R_62028",-64.30531138,-40.14557772,376,1
"377",377,"Argentina",32,"ARG","Argentina","rionegro","AR-R","ARG016","62","elcuy","El Cuy","ARG016007","El Cuy","035","Departamento",2,"SOC","AR_R_62035",-68.496068,-39.70241734,377,1
"378",378,"Argentina",32,"ARG","Argentina","rionegro","AR-R","ARG016","62","generalroca","General Roca","ARG016008","General Roca","042","Departamento",2,"SOC","AR_R_62042",-67.55138838,-38.53319445,378,1
"379",379,"Argentina",32,"ARG","Argentina","rionegro","AR-R","ARG016","62","9dejulio","9 de julio","ARG016002","9 de julio","049","Departamento",2,"SOC","AR_R_62049",-67.45764222,-40.92680968,379,1
"380",380,"Argentina",32,"ARG","Argentina","rionegro","AR-R","ARG016","62","norquinco","Norquinco","ARG016009","?Ñorquinco","056","Departamento",2,"SOC","AR_R_62056",-70.39371429,-41.74048405,380,1
"381",381,"Argentina",32,"ARG","Argentina","rionegro","AR-R","ARG016","62","pichimahuida","Pichi Mahuida","ARG016010","Pichi Mahuida","063","Departamento",2,"SOC","AR_R_62063",-64.40944394,-39.40016369,381,1
"382",382,"Argentina",32,"ARG","Argentina","rionegro","AR-R","ARG016","62","pilcaniyeu","Pilcaniyeu","ARG016011","Pilcaniyeu","070","Departamento",2,"SOC","AR_R_62070",-70.47045008,-40.89399511,382,1
"383",383,"Argentina",32,"ARG","Argentina","rionegro","AR-R","ARG016","62","sanantonio","San Antonio","ARG016012","San Antonio","077","Departamento",2,"SOC","AR_R_62077",-65.36964398,-40.94765368,383,1
"384",384,"Argentina",32,"ARG","Argentina","rionegro","AR-R","ARG016","62","valcheta","Valcheta","ARG016013","Valcheta","084","Departamento",2,"SOC","AR_R_62084",-66.31113494,-40.9788218,384,1
"385",385,"Argentina",32,"ARG","Argentina","rionegro","AR-R","ARG016","62","25demayo","25 de Mayo","ARG016001","25 de Mayo","091","Departamento",2,"SOC","AR_R_62091",-68.90467104,-41.13117913,385,1
"386",386,"Argentina",32,"ARG","Argentina","santafe","AR-S","ARG021","82","belgrano","Belgrano","ARG021002","Belgrano","007","Departamento",2,"SOC","AR_S_82007",-61.71622794,-32.6055535,386,1
"387",387,"Argentina",32,"ARG","Argentina","santafe","AR-S","ARG021","82","caseros","Caseros","ARG021003","Caseros","014","Departamento",2,"SOC","AR_S_82014",-61.54103813,-33.21800086,387,1
"388",388,"Argentina",32,"ARG","Argentina","santafe","AR-S","ARG021","82","castellanos","Castellanos","ARG021004","Castellanos","021","Departamento",2,"SOC","AR_S_82021",-61.66782834,-31.2291948,388,1
"389",389,"Argentina",32,"ARG","Argentina","santafe","AR-S","ARG021","82","constitucion","Constitucion","ARG021005","Constituci?ón","028","Departamento",2,"SOC","AR_S_82028",-60.85925785,-33.4835725,389,1
"390",390,"Argentina",32,"ARG","Argentina","santafe","AR-S","ARG021","82","garay","Garay","ARG021006","Garay","035","Departamento",2,"SOC","AR_S_82035",-60.13593488,-31.05293941,390,1
"391",391,"Argentina",32,"ARG","Argentina","santafe","AR-S","ARG021","82","generallopez","General Lopez","ARG021007","General L?ópez","042","Departamento",2,"SOC","AR_S_82042",-61.94461317,-33.92207288,391,1
"392",392,"Argentina",32,"ARG","Argentina","santafe","AR-S","ARG021","82","generalobligado","General Obligado","ARG021008","General Obligado","049","Departamento",2,"SOC","AR_S_82049",-59.52904404,-28.67238891,392,1
"393",393,"Argentina",32,"ARG","Argentina","santafe","AR-S","ARG021","82","iriondo","Iriondo","ARG021009","Iriondo","056","Departamento",2,"SOC","AR_S_82056",-61.28062565,-32.70266673,393,1
"394",394,"Argentina",32,"ARG","Argentina","santafe","AR-S","ARG021","82","santafe","La Capital","ARG021010","Santa Fe (Capital)","063","Departamento",2,"SOC","AR_S_82063",-60.68241623,-31.48300559,394,1
"395",395,"Argentina",32,"ARG","Argentina","santafe","AR-S","ARG021","82","lascolonias","Las Colonias","ARG021011","Las Colonias","070","Departamento",2,"SOC","AR_S_82070",-61.12453973,-31.31932781,395,1
"396",396,"Argentina",32,"ARG","Argentina","santafe","AR-S","ARG021","82","9dejulio","9 de Julio","ARG021001","9 de Julio","077","Departamento",2,"SOC","AR_S_82077",-61.39998311,-28.84634004,396,1
"397",397,"Argentina",32,"ARG","Argentina","santafe","AR-S","ARG021","82","rosario","Rosario","ARG021012","Rosario","084","Departamento",2,"SOC","AR_S_82084",-60.7018409,-33.12991633,397,1
"398",398,"Argentina",32,"ARG","Argentina","santafe","AR-S","ARG021","82","sancristobal","San Cristobal","ARG021013","San Crist?óbal","091","Departamento",2,"SOC","AR_S_82091",-61.36407499,-30.22798356,398,1
"399",399,"Argentina",32,"ARG","Argentina","santafe","AR-S","ARG021","82","sanjavier","San Javier","ARG021014","San Javier","098","Departamento",2,"SOC","AR_S_82098",-59.90128911,-30.11331814,399,1
"400",400,"Argentina",32,"ARG","Argentina","santafe","AR-S","ARG021","82","sanjeronimo","San Jeronimo","ARG021015","San Jer?ónimo","105","Departamento",2,"SOC","AR_S_82105",-61.05600361,-32.15881341,400,1
"401",401,"Argentina",32,"ARG","Argentina","santafe","AR-S","ARG021","82","sanjusto","San Justo","ARG021016","San Justo","112","Departamento",2,"SOC","AR_S_82112",-60.50460486,-30.52949848,401,1
"402",402,"Argentina",32,"ARG","Argentina","santafe","AR-S","ARG021","82","sanlorenzo","San Lorenzo","ARG021017","San Lorenzo","119","Departamento",2,"SOC","AR_S_82119",-60.96990104,-32.94284883,402,1
"403",403,"Argentina",32,"ARG","Argentina","santafe","AR-S","ARG021","82","sanmartin","San Martin","ARG021018","San Mart?ín","126","Departamento",2,"SOC","AR_S_82126",-61.81938544,-32.01076152,403,1
"404",404,"Argentina",32,"ARG","Argentina","santafe","AR-S","ARG021","82","vera","Vera","ARG021019","Vera","133","Departamento",2,"SOC","AR_S_82133",-60.41679962,-28.96598606,404,1
"405",405,"Argentina",32,"ARG","Argentina","tucuman","AR-T","ARG024","90","burruyacu","Burruyacu","ARG024001","Burruyac?ú","007","Departamento",2,"SOC","AR_T_90007",-64.82319216,-26.52479197,405,1
"406",406,"Argentina",32,"ARG","Argentina","tucuman","AR-T","ARG024","90","cruzalta","Cruz Alta","ARG024004","Cruz Alta","014","Departamento",2,"SOC","AR_T_90014",-64.9865617,-26.92269231,406,1
"407",407,"Argentina",32,"ARG","Argentina","tucuman","AR-T","ARG024","90","chicligasta","Chicligasta","ARG024003","Chicligasta","021","Departamento",2,"SOC","AR_T_90021",-65.81315548,-27.26146983,407,1
"408",408,"Argentina",32,"ARG","Argentina","tucuman","AR-T","ARG024","90","famailla","Famailla","ARG024005","Famaill?á","028","Departamento",2,"SOC","AR_T_90028",-65.46930573,-26.97594521,408,1
"409",409,"Argentina",32,"ARG","Argentina","tucuman","AR-T","ARG024","90","graneros","Graneros","ARG024006","Graneros","035","Departamento",2,"SOC","AR_T_90035",-65.2581625,-27.70763648,409,1
"410",410,"Argentina",32,"ARG","Argentina","tucuman","AR-T","ARG024","90","juanbalberdi","Juan B. Alberdi","ARG024007","Juan B. Alberdi","042","Departamento",2,"SOC","AR_T_90042",-65.789404,-27.60154676,410,1
"411",411,"Argentina",32,"ARG","Argentina","tucuman","AR-T","ARG024","90","lacocha","La Cocha","ARG024008","La Cocha","049","Departamento",2,"SOC","AR_T_90049",-65.60081097,-27.78616938,411,1
"412",412,"Argentina",32,"ARG","Argentina","tucuman","AR-T","ARG024","90","leales","Leales","ARG024009","Leales","056","Departamento",2,"SOC","AR_T_90056",-65.09474969,-27.18716045,412,1
"413",413,"Argentina",32,"ARG","Argentina","tucuman","AR-T","ARG024","90","lules","Lules","ARG024010","Lules","063","Departamento",2,"SOC","AR_T_90063",-65.42161994,-26.8674104,413,1
"414",414,"Argentina",32,"ARG","Argentina","tucuman","AR-T","ARG024","90","monteros","Monteros","ARG024011","Monteros","070","Departamento",2,"SOC","AR_T_90070",-65.64142272,-27.10254035,414,1
"415",415,"Argentina",32,"ARG","Argentina","tucuman","AR-T","ARG024","90","riochico","Rio Chico","ARG024012","R?ío Chico","077","Departamento",2,"SOC","AR_T_90077",-65.75752806,-27.43672992,415,1
"416",416,"Argentina",32,"ARG","Argentina","tucuman","AR-T","ARG024","90","tucuman","Capital","ARG024002","Tucum?án (Capital)","084","Departamento",2,"SOC","AR_T_90084",-65.22426056,-26.84087594,416,1
"417",417,"Argentina",32,"ARG","Argentina","tucuman","AR-T","ARG024","90","simoca","Simoca","ARG024013","Simoca","091","Departamento",2,"SOC","AR_T_90091",-65.2996429,-27.42058157,417,1
"418",418,"Argentina",32,"ARG","Argentina","tucuman","AR-T","ARG024","90","tafidelvalle","Tafi del Valle","ARG024014","Taf?í del Valle","098","Departamento",2,"SOC","AR_T_90098",-65.87904398,-26.59856476,418,1
"419",419,"Argentina",32,"ARG","Argentina","tucuman","AR-T","ARG024","90","tafiviejo","Tafi Viejo","ARG024015","Taf?í Viejo","105","Departamento",2,"SOC","AR_T_90105",-65.45531883,-26.66565485,419,1
"420",420,"Argentina",32,"ARG","Argentina","tucuman","AR-T","ARG024","90","trancas","Trancas","ARG024016","Trancas","112","Departamento",2,"SOC","AR_T_90112",-65.40418523,-26.34802759,420,1
"421",421,"Argentina",32,"ARG","Argentina","tucuman","AR-T","ARG024","90","yerbabuena","Yerba Buena","ARG024017","Yerba Buena","119","Departamento",2,"SOC","AR_T_90119",-65.34665112,-26.79657006,421,1
"422",422,"Argentina",32,"ARG","Argentina","chubut","AR-U","ARG004","26","biedma","Biedma","ARG004001","Biedma","007","Departamento",2,"SOC","AR_U_26007",-65.37302756,-42.41931644,422,1
"423",423,"Argentina",32,"ARG","Argentina","chubut","AR-U","ARG004","26","cushamen","Cushamen","ARG004002","Cushamen","014","Departamento",2,"SOC","AR_U_26014",-70.71253611,-42.36672676,423,1
"424",424,"Argentina",32,"ARG","Argentina","chubut","AR-U","ARG004","26","escalante","Escalante","ARG004003","Escalante","021","Departamento",2,"SOC","AR_U_26021",-67.70623375,-45.283588,424,1
"425",425,"Argentina",32,"ARG","Argentina","chubut","AR-U","ARG004","26","florentinoameghino","Florentino Ameghino","ARG004004","Florentino Ameghino","028","Departamento",2,"SOC","AR_U_26028",-66.12976508,-44.42276501,425,1
"426",426,"Argentina",32,"ARG","Argentina","chubut","AR-U","ARG004","26","futaleufu","Futaleufu","ARG004005","Futaleuf?ú","035","Departamento",2,"SOC","AR_U_26035",-71.45363416,-43.07003893,426,1
"427",427,"Argentina",32,"ARG","Argentina","chubut","AR-U","ARG004","26","gaiman","Gaiman","ARG004006","Gaiman","042","Departamento",2,"SOC","AR_U_26042",-66.17207004,-43.27250799,427,1
"428",428,"Argentina",32,"ARG","Argentina","chubut","AR-U","ARG004","26","gastre","Gastre","ARG004007","Gastre","049","Departamento",2,"SOC","AR_U_26049",-68.80245981,-42.74916186,428,1
"429",429,"Argentina",32,"ARG","Argentina","chubut","AR-U","ARG004","26","languineo","Languineo","ARG004008","Langui?ñeo","056","Departamento",2,"SOC","AR_U_26056",-70.34743621,-43.3231304,429,1
"430",430,"Argentina",32,"ARG","Argentina","chubut","AR-U","ARG004","26","martires","Martires","ARG004009","M?ártires","063","Departamento",2,"SOC","AR_U_26063",-67.23997876,-43.81382946,430,1
"431",431,"Argentina",32,"ARG","Argentina","chubut","AR-U","ARG004","26","pasodeindios","Paso de Indios","ARG004010","Paso de Indios","070","Departamento",2,"SOC","AR_U_26070",-68.68589812,-44.0301577,431,1
"432",432,"Argentina",32,"ARG","Argentina","chubut","AR-U","ARG004","26","rawson","Rawson","ARG004011","Rawson","077","Departamento",2,"SOC","AR_U_26077",-65.07536147,-43.13931062,432,1
"433",433,"Argentina",32,"ARG","Argentina","chubut","AR-U","ARG004","26","riosenguer","Rio Senguer","ARG004012","R?ío Senguer","084","Departamento",2,"SOC","AR_U_26084",-70.63782111,-45.34141303,433,1
"434",434,"Argentina",32,"ARG","Argentina","chubut","AR-U","ARG004","26","sarmiento","Sarmiento","ARG004013","Sarmiento","091","Departamento",2,"SOC","AR_U_26091",-69.00307327,-45.34775219,434,1
"435",435,"Argentina",32,"ARG","Argentina","chubut","AR-U","ARG004","26","tehuelches","Tehuelches","ARG004014","Tehuelches","098","Departamento",2,"SOC","AR_U_26098",-70.57430208,-44.19962303,435,1
"436",436,"Argentina",32,"ARG","Argentina","chubut","AR-U","ARG004","26","telsen","Telsen","ARG004015","Telsen","105","Departamento",2,"SOC","AR_U_26105",-67.17636116,-42.43832197,436,1
"437",437,"Argentina",32,"ARG","Argentina","tierradelfuegoantartidaeislasdelatlanticosur","AR-V","ARG023","94","riogrande","Rio Grande","ARG023002","R?ío Grande","007","Departamento",2,"SOC","AR_V_94007",-67.89196463,-54.03179386,437,1
"438",438,"Argentina",32,"ARG","Argentina","tierradelfuegoantartidaeislasdelatlanticosur","AR-V","ARG023","94","ushuaia","Ushuaia","ARG023003","Ushuaia","014","Departamento",2,"SOC","AR_V_94014",-66.86878637,-54.75221257,438,1
"439",439,"Argentina",32,"ARG","Argentina","corrientes","AR-W","ARG007","18","bellavista","Bella Vista","ARG007001","Bella Vista","007","Departamento",2,"SOC","AR_W_18007",-58.92935198,-28.49621503,439,1
"440",440,"Argentina",32,"ARG","Argentina","corrientes","AR-W","ARG007","18","berondeastrada","Beron de Astrada","ARG007002","Ber?ón de Astrada","014","Departamento",2,"SOC","AR_W_18014",-57.63201511,-27.4632625,440,1
"441",441,"Argentina",32,"ARG","Argentina","corrientes","AR-W","ARG007","18","corrientes","Corrientes","ARG007003","Corrientes (Capital)","021","Departamento",2,"SOC","AR_W_18021",-58.76151829,-27.5198591,441,1
"442",442,"Argentina",32,"ARG","Argentina","corrientes","AR-W","ARG007","18","concepcion","Concepcion","ARG007004","Concepci?ón","028","Departamento",2,"SOC","AR_W_18028",-58.02961381,-28.3958916,442,1
"443",443,"Argentina",32,"ARG","Argentina","corrientes","AR-W","ARG007","18","curuzucuatia","Curuzu Cuatia","ARG007005","Curuz?ú Cuati?á","035","Departamento",2,"SOC","AR_W_18035",-58.33360175,-29.69853846,443,1
"444",444,"Argentina",32,"ARG","Argentina","corrientes","AR-W","ARG007","18","empedrado","Empedrado","ARG007006","Empedrado","042","Departamento",2,"SOC","AR_W_18042",-58.672475,-27.89842352,444,1
"445",445,"Argentina",32,"ARG","Argentina","corrientes","AR-W","ARG007","18","esquina","Esquina","ARG007007","Esquina","049","Departamento",2,"SOC","AR_W_18049",-59.2403476,-29.98050081,445,1
"446",446,"Argentina",32,"ARG","Argentina","corrientes","AR-W","ARG007","18","generalalvear","General Alvear","ARG007008","General Alvear","056","Departamento",2,"SOC","AR_W_18056",-56.52706524,-28.77928814,446,1
"447",447,"Argentina",32,"ARG","Argentina","corrientes","AR-W","ARG007","18","generalpaz","General Paz","ARG007009","General Paz","063","Departamento",2,"SOC","AR_W_18063",-57.77659976,-27.70167985,447,1
"448",448,"Argentina",32,"ARG","Argentina","corrientes","AR-W","ARG007","18","goya","Goya","ARG007010","Goya","070","Departamento",2,"SOC","AR_W_18070",-59.26071519,-29.45220205,448,1
"449",449,"Argentina",32,"ARG","Argentina","corrientes","AR-W","ARG007","18","itati","Itati","ARG007011","Itat?í","077","Departamento",2,"SOC","AR_W_18077",-58.07814736,-27.33534527,449,1
"450",450,"Argentina",32,"ARG","Argentina","corrientes","AR-W","ARG007","18","ituzaingo","Ituzaingo","ARG007012","Ituzaing?ó","084","Departamento",2,"SOC","AR_W_18084",-56.79863606,-27.89548696,450,1
"451",451,"Argentina",32,"ARG","Argentina","corrientes","AR-W","ARG007","18","lavalle","Lavalle","ARG007013","Lavalle","091","Departamento",2,"SOC","AR_W_18091",-58.93428787,-28.99215873,451,1
"452",452,"Argentina",32,"ARG","Argentina","corrientes","AR-W","ARG007","18","mburucuya","Mburucuya","ARG007014","Mburucuy?á","098","Departamento",2,"SOC","AR_W_18098",-58.17369305,-28.00878015,452,1
"453",453,"Argentina",32,"ARG","Argentina","corrientes","AR-W","ARG007","18","mercedes","Mercedes","ARG007015","Mercedes","105","Departamento",2,"SOC","AR_W_18105",-57.82814989,-29.0632544,453,1
"454",454,"Argentina",32,"ARG","Argentina","corrientes","AR-W","ARG007","18","montecaseros","Monte Caseros","ARG007016","Monte Caseros","112","Departamento",2,"SOC","AR_W_18112",-57.87312453,-30.23098553,454,1
"455",455,"Argentina",32,"ARG","Argentina","corrientes","AR-W","ARG007","18","pasodeloslibres","Paso de Los Libres","ARG007017","Paso de Los Libres","119","Departamento",2,"SOC","AR_W_18119",-57.31067719,-29.59874735,455,1
"456",456,"Argentina",32,"ARG","Argentina","corrientes","AR-W","ARG007","18","saladas","Saladas","ARG007018","Saladas","126","Departamento",2,"SOC","AR_W_18126",-58.60328639,-28.20752005,456,1
"457",457,"Argentina",32,"ARG","Argentina","corrientes","AR-W","ARG007","18","sancosme","San Cosme","ARG007019","San Cosme","133","Departamento",2,"SOC","AR_W_18133",-58.51360136,-27.37371314,457,1
"458",458,"Argentina",32,"ARG","Argentina","corrientes","AR-W","ARG007","18","sanluisdelpalmar","San Luis del Palmar","ARG007020","San Luis del Palmar","140","Departamento",2,"SOC","AR_W_18140",-58.27052816,-27.5967859,458,1
"459",459,"Argentina",32,"ARG","Argentina","corrientes","AR-W","ARG007","18","sanmartin","San Martin","ARG007021","San Mart?ín","147","Departamento",2,"SOC","AR_W_18147",-56.94447149,-28.82746254,459,1
"460",460,"Argentina",32,"ARG","Argentina","corrientes","AR-W","ARG007","18","sanmiguel","San Miguel","ARG007022","San Miguel","154","Departamento",2,"SOC","AR_W_18154",-57.42213727,-27.87065977,460,1
"461",461,"Argentina",32,"ARG","Argentina","corrientes","AR-W","ARG007","18","sanroque","San Roque","ARG007023","San Roque","161","Departamento",2,"SOC","AR_W_18161",-58.60484386,-28.70719754,461,1
"462",462,"Argentina",32,"ARG","Argentina","corrientes","AR-W","ARG007","18","santotome","Santo Tome","ARG007024","Santo Tom?ÇÜ","168","Departamento",2,"SOC","AR_W_18168",-56.23480753,-28.22880965,462,1
"463",463,"Argentina",32,"ARG","Argentina","corrientes","AR-W","ARG007","18","sauce","Sauce","ARG007025","Sauce","175","Departamento",2,"SOC","AR_W_18175",-58.80111711,-30.00371023,463,1
"464",464,"Argentina",32,"ARG","Argentina","cordoba","AR-X","ARG006","14","calamuchita","Calamuchita","ARG006001","Calamuchita","007","Departamento",2,"SOC","AR_X_14007",-64.61356473,-32.20483431,464,1
"465",465,"Argentina",32,"ARG","Argentina","cordoba","AR-X","ARG006","14","cordoba","Cordoba","ARG006002","C?órdoba (Capital)","014","Departamento",2,"SOC","AR_X_14014",-64.18851799,-31.42136107,465,1
"466",466,"Argentina",32,"ARG","Argentina","cordoba","AR-X","ARG006","14","colon","Colon","ARG006003","Col?ón","021","Departamento",2,"SOC","AR_X_14021",-64.15808532,-31.14790868,466,1
"467",467,"Argentina",32,"ARG","Argentina","cordoba","AR-X","ARG006","14","cruzdeleje","Cruz del Eje","ARG006004","Cruz del Eje","028","Departamento",2,"SOC","AR_X_14028",-65.08901049,-30.64950993,467,1
"468",468,"Argentina",32,"ARG","Argentina","cordoba","AR-X","ARG006","14","generalroca","General Roca","ARG006005","General Roca","035","Departamento",2,"SOC","AR_X_14035",-64.38054525,-34.61214919,468,1
"469",469,"Argentina",32,"ARG","Argentina","cordoba","AR-X","ARG006","14","generalsanmartin","General San Martin","ARG006006","General San Mart?ín","042","Departamento",2,"SOC","AR_X_14042",-63.25984336,-32.51706089,469,1
"470",470,"Argentina",32,"ARG","Argentina","cordoba","AR-X","ARG006","14","ischilin","Ischilin","ARG006007","Ischil?ín","049","Departamento",2,"SOC","AR_X_14049",-64.61069303,-30.40622068,470,1
"471",471,"Argentina",32,"ARG","Argentina","cordoba","AR-X","ARG006","14","juarezcelman","Juarez Celman","ARG006008","Ju?árez Celman","056","Departamento",2,"SOC","AR_X_14056",-63.61012514,-33.3223323,471,1
"472",472,"Argentina",32,"ARG","Argentina","cordoba","AR-X","ARG006","14","marcosjuarez","Marcos Juarez","ARG006009","Marcos Ju?árez","063","Departamento",2,"SOC","AR_X_14063",-62.28132993,-33.02672286,472,1
"473",473,"Argentina",32,"ARG","Argentina","cordoba","AR-X","ARG006","14","minas","Minas","ARG006010","Minas","070","Departamento",2,"SOC","AR_X_14070",-65.4169416,-31.03453825,473,1
"474",474,"Argentina",32,"ARG","Argentina","cordoba","AR-X","ARG006","14","pocho","Pocho","ARG006011","Pocho","077","Departamento",2,"SOC","AR_X_14077",-65.43097603,-31.4640129,474,1
"475",475,"Argentina",32,"ARG","Argentina","cordoba","AR-X","ARG006","14","presidenteroquesaenzpena","Presidente Roque Saenz Pena","ARG006012","Presidente Roque S?áenz Pe?ña","084","Departamento",2,"SOC","AR_X_14084",-63.42597251,-34.1335731,475,1
"476",476,"Argentina",32,"ARG","Argentina","cordoba","AR-X","ARG006","14","punilla","Punilla","ARG006013","Punilla","091","Departamento",2,"SOC","AR_X_14091",-64.60260681,-31.22828355,476,1
"477",477,"Argentina",32,"ARG","Argentina","cordoba","AR-X","ARG006","14","riocuarto","Rio Cuarto","ARG006014","R?ío Cuarto","098","Departamento",2,"SOC","AR_X_14098",-64.49411671,-33.31926116,477,1
"478",478,"Argentina",32,"ARG","Argentina","cordoba","AR-X","ARG006","14","rioprimero","Rio Primero","ARG006015","R?ío Primero","105","Departamento",2,"SOC","AR_X_14105",-63.4431676,-31.029931,478,1
"479",479,"Argentina",32,"ARG","Argentina","cordoba","AR-X","ARG006","14","rioseco","Rio Seco","ARG006016","R?ío Seco","112","Departamento",2,"SOC","AR_X_14112",-63.21973692,-30.02956948,479,1
"480",480,"Argentina",32,"ARG","Argentina","cordoba","AR-X","ARG006","14","riosegundo","Rio Segundo","ARG006017","R?ío Segundo","119","Departamento",2,"SOC","AR_X_14119",-63.49178739,-31.7388531,480,1
"481",481,"Argentina",32,"ARG","Argentina","cordoba","AR-X","ARG006","14","sanalberto","San Alberto","ARG006018","San Alberto","126","Departamento",2,"SOC","AR_X_14126",-65.16407848,-31.71851933,481,1
"482",482,"Argentina",32,"ARG","Argentina","cordoba","AR-X","ARG006","14","sanjavier","San Javier","ARG006019","San Javier","133","Departamento",2,"SOC","AR_X_14133",-65.14365498,-32.07889529,482,1
"483",483,"Argentina",32,"ARG","Argentina","cordoba","AR-X","ARG006","14","sanjusto","San Justo","ARG006020","San Justo","140","Departamento",2,"SOC","AR_X_14140",-62.54187652,-31.24927759,483,1
"484",484,"Argentina",32,"ARG","Argentina","cordoba","AR-X","ARG006","14","santamaria","Santa Maria","ARG006021","Santa Mar?ía","147","Departamento",2,"SOC","AR_X_14147",-64.31300807,-31.71257174,484,1
"485",485,"Argentina",32,"ARG","Argentina","cordoba","AR-X","ARG006","14","sobremonte","Sobremonte","ARG006022","Sobremonte","154","Departamento",2,"SOC","AR_X_14154",-64.13094699,-29.76230878,485,1
"486",486,"Argentina",32,"ARG","Argentina","cordoba","AR-X","ARG006","14","terceroarriba","Tercero Arriba","ARG006023","Tercero Arriba","161","Departamento",2,"SOC","AR_X_14161",-63.78004126,-32.28723568,486,1
"487",487,"Argentina",32,"ARG","Argentina","cordoba","AR-X","ARG006","14","totoral","Totoral","ARG006024","Totoral","168","Departamento",2,"SOC","AR_X_14168",-63.97343243,-30.72666556,487,1
"488",488,"Argentina",32,"ARG","Argentina","cordoba","AR-X","ARG006","14","tulumba","Tulumba","ARG006025","Tulumba","175","Departamento",2,"SOC","AR_X_14175",-63.83919698,-30.20620303,488,1
"489",489,"Argentina",32,"ARG","Argentina","cordoba","AR-X","ARG006","14","union","Union","ARG006026","Uni?ón","182","Departamento",2,"SOC","AR_X_14182",-62.80359844,-32.88242992,489,1
"490",490,"Argentina",32,"ARG","Argentina","jujuy","AR-Y","ARG010","38","cochinoca","Cochinoca","ARG010001","Cochinoca","007","Departamento",2,"SOC","AR_Y_38007",-65.9197128,-22.99924965,490,1
"491",491,"Argentina",32,"ARG","Argentina","jujuy","AR-Y","ARG010","38","elcarmen","El Carmen","ARG010003","El Carmen","014","Departamento",2,"SOC","AR_Y_38014",-65.08310914,-24.45348398,491,1
"492",492,"Argentina",32,"ARG","Argentina","jujuy","AR-Y","ARG010","38","drmanuelbelgrano","Dr. Manuel Belgrano","ARG010002","Dr. Manuel Belgrano","021","Departamento",2,"SOC","AR_Y_38021",-65.42102032,-24.09219923,492,1
"493",493,"Argentina",32,"ARG","Argentina","jujuy","AR-Y","ARG010","38","humahuaca","Humahuaca","ARG010004","Humahuaca","028","Departamento",2,"SOC","AR_Y_38028",-65.38208624,-23.09164315,493,1
"494",494,"Argentina",32,"ARG","Argentina","jujuy","AR-Y","ARG010","38","ledesma","Ledesma","ARG010005","Ledesma","035","Departamento",2,"SOC","AR_Y_38035",-64.80378212,-23.78362576,494,1
"495",495,"Argentina",32,"ARG","Argentina","jujuy","AR-Y","ARG010","38","palpala","Palpala","ARG010006","Palpal?á","042","Departamento",2,"SOC","AR_Y_38042",-65.12452738,-24.20705684,495,1
"496",496,"Argentina",32,"ARG","Argentina","jujuy","AR-Y","ARG010","38","rinconada","Rinconada","ARG010007","Rinconada","049","Departamento",2,"SOC","AR_Y_38049",-66.50433568,-22.63026167,496,1
"497",497,"Argentina",32,"ARG","Argentina","jujuy","AR-Y","ARG010","38","sanantonio","San Antonio","ARG010008","San Antonio","056","Departamento",2,"SOC","AR_Y_38056",-65.42564032,-24.344375,497,1
"498",498,"Argentina",32,"ARG","Argentina","jujuy","AR-Y","ARG010","38","sanpedro","San Pedro","ARG010009","San Pedro","063","Departamento",2,"SOC","AR_Y_38063",-64.80953786,-24.29575402,498,1
"499",499,"Argentina",32,"ARG","Argentina","jujuy","AR-Y","ARG010","38","santabarbara","Santa Barbara","ARG010010","Santa B?árbara","070","Departamento",2,"SOC","AR_Y_38070",-64.40623992,-24.01065226,499,1
